city,latitude,longitude,pop1000,pop1100,pop1200,pop1300,pop1400,pop1500,pop1550,pop1600,pop1650,pop1700,pop1750,pop1800,pop1850,11to13,13to15,1500to1550,1550to1600,16to18,150pre,150post,lnInc20km1
Barnsley,53.553699999999999,-1.479100000000000,0.000000000000000,0.000000000000000,1.000000000000000,1.000000000000000,1.000000000000000,1.000000000000000,1.000000000000000,1.000000000000000,1.000000000000000,1.000000000000000,2.000000000000000,4.000000000000000,13.000000000000000,,0.000000000000000,0.000000000000000,0.000000000000000,3.000000000000000,0.000000000000000,0.000000000000000,8.98693084716797
Bath,51.380000000000003,-2.360000000000000,1.000000000000000,1.000000000000000,2.000000000000000,2.000000000000000,1.000000000000000,2.000000000000000,2.000000000000000,2.000000000000000,3.000000000000000,3.000000000000000,10.000000000000000,33.000000000000000,54.000000000000000,1.000000000000000,0.000000000000000,0.000000000000000,0.000000000000000,15.500000000000000,1.000000000000000,0.500000000000000,18.9026298522949
Beverley,53.844999999999999,-0.427000000000000,1.000000000000000,2.000000000000000,2.000000000000000,2.000000000000000,1.000000000000000,2.000000000000000,2.000000000000000,2.000000000000000,3.000000000000000,3.000000000000000,4.000000000000000,6.000000000000000,9.000000000000000,0.000000000000000,0.000000000000000,0.000000000000000,0.000000000000000,2.000000000000000,1.000000000000000,0.500000000000000,22.2239532470703
Bilston,52.566000000000003,-2.072800000000000,1.000000000000000,1.000000000000000,2.000000000000000,2.000000000000000,1.000000000000000,2.000000000000000,3.000000000000000,3.000000000000000,3.000000000000000,4.000000000000000,5.000000000000000,7.000000000000000,24.000000000000000,1.000000000000000,0.000000000000000,0.500000000000000,0.000000000000000,1.333333333333333,2.000000000000000,0.333333333333333,4.96067428588867
Birmingham,52.479999999999997,-1.902500000000000,0.000000000000000,0.000000000000000,1.000000000000000,1.000000000000000,1.000000000000000,1.000000000000000,1.000000000000000,2.000000000000000,4.000000000000000,7.000000000000000,24.000000000000000,71.000000000000000,233.000000000000000,,0.000000000000000,0.000000000000000,1.000000000000000,34.500000000000000,0.000000000000000,6.000000000000000,5.65947341918945
Blackburn,53.747999999999998,-2.482000000000000,0.000000000000000,1.000000000000000,1.000000000000000,1.000000000000000,1.000000000000000,1.000000000000000,2.000000000000000,2.000000000000000,1.000000000000000,1.000000000000000,4.000000000000000,12.000000000000000,47.000000000000000,0.000000000000000,0.000000000000000,1.000000000000000,0.000000000000000,5.000000000000000,1.000000000000000,-0.500000000000000,4.02767896652222
Blackpool,53.814200000000000,-3.050300000000000,0.000000000000000,0.000000000000000,0.000000000000000,0.000000000000000,0.000000000000000,0.000000000000000,0.000000000000000,0.000000000000000,0.000000000000000,0.000000000000000,0.000000000000000,1.000000000000000,3.000000000000000,,,,,,,,2.48044633865356
Bolton,53.578000000000003,-2.429000000000000,0.000000000000000,1.000000000000000,1.000000000000000,1.000000000000000,1.000000000000000,1.000000000000000,1.000000000000000,2.000000000000000,2.000000000000000,2.000000000000000,1.000000000000000,13.000000000000000,61.000000000000000,0.000000000000000,0.000000000000000,0.000000000000000,1.000000000000000,5.500000000000000,0.000000000000000,1.000000000000000,1.1982034444809
Boston,52.973999999999997,-0.021400000000000,1.000000000000000,2.000000000000000,4.000000000000000,7.000000000000000,6.000000000000000,2.000000000000000,2.000000000000000,2.000000000000000,3.000000000000000,4.000000000000000,5.000000000000000,6.000000000000000,15.000000000000000,2.500000000000000,-0.714285714285714,0.000000000000000,0.000000000000000,2.000000000000000,-0.666666666666667,1.000000000000000,8.25277328491211
Bournemouth,50.719999999999999,-1.880000000000000,0.000000000000000,0.000000000000000,0.000000000000000,0.000000000000000,0.000000000000000,0.000000000000000,0.000000000000000,0.000000000000000,0.000000000000000,0.000000000000000,0.000000000000000,0.000000000000000,5.000000000000000,,,,,,,,4.21067571640015
Brighton,50.842900000000000,-0.131300000000000,0.000000000000000,1.000000000000000,1.000000000000000,2.000000000000000,1.000000000000000,2.000000000000000,2.000000000000000,2.000000000000000,3.000000000000000,3.000000000000000,5.000000000000000,8.000000000000000,66.000000000000000,1.000000000000000,0.000000000000000,0.000000000000000,0.000000000000000,3.000000000000000,1.000000000000000,0.500000000000000,3.73465418815613
Bristol,51.450000000000003,-2.583300000000000,1.000000000000000,2.000000000000000,3.000000000000000,11.000000000000000,10.000000000000000,10.000000000000000,11.000000000000000,12.000000000000000,15.000000000000000,20.000000000000000,50.000000000000000,64.000000000000000,137.000000000000000,4.500000000000000,-0.090909090909091,0.100000000000000,0.090909090909091,4.333333333333333,0.100000000000000,0.818181818181818,20.6522312164307
Bromsgrove,52.335299999999997,-2.057900000000000,1.000000000000000,1.000000000000000,2.000000000000000,2.000000000000000,1.000000000000000,2.000000000000000,2.000000000000000,2.000000000000000,3.000000000000000,3.000000000000000,4.000000000000000,6.000000000000000,10.000000000000000,1.000000000000000,0.000000000000000,0.000000000000000,0.000000000000000,2.000000000000000,1.000000000000000,0.500000000000000,13.813720703125
Burnley,53.789000000000001,-2.248000000000000,0.000000000000000,1.000000000000000,1.000000000000000,1.000000000000000,1.000000000000000,1.000000000000000,1.000000000000000,1.000000000000000,1.000000000000000,1.000000000000000,2.000000000000000,5.000000000000000,25.000000000000000,0.000000000000000,0.000000000000000,0.000000000000000,0.000000000000000,4.000000000000000,0.000000000000000,0.000000000000000,3.81373119354248
Burslem,53.042600000000000,-2.187900000000000,0.000000000000000,1.000000000000000,1.000000000000000,1.000000000000000,1.000000000000000,1.000000000000000,1.000000000000000,1.000000000000000,1.000000000000000,1.000000000000000,3.000000000000000,7.000000000000000,20.000000000000000,0.000000000000000,0.000000000000000,0.000000000000000,0.000000000000000,6.000000000000000,0.000000000000000,0.000000000000000,8.71149349212646
Bury,53.593000000000004,-2.298000000000000,0.000000000000000,0.000000000000000,0.000000000000000,0.000000000000000,0.000000000000000,1.000000000000000,1.000000000000000,1.000000000000000,1.000000000000000,1.000000000000000,3.000000000000000,7.000000000000000,25.000000000000000,,,0.000000000000000,0.000000000000000,6.000000000000000,,0.000000000000000,1.80866932868958
Canterbury,51.280000000000001,1.080000000000000,2.000000000000000,4.000000000000000,5.000000000000000,6.000000000000000,4.000000000000000,3.000000000000000,4.000000000000000,6.000000000000000,7.000000000000000,8.000000000000000,8.000000000000000,9.000000000000000,28.000000000000000,0.500000000000000,-0.500000000000000,0.333333333333333,0.500000000000000,0.500000000000000,0.000000000000000,1.000000000000000,25.4511890411377
Carlisle,54.890999999999998,-2.944000000000000,1.000000000000000,1.000000000000000,1.000000000000000,1.000000000000000,1.000000000000000,1.000000000000000,1.000000000000000,2.000000000000000,2.000000000000000,2.000000000000000,4.000000000000000,9.000000000000000,26.000000000000000,0.000000000000000,0.000000000000000,0.000000000000000,1.000000000000000,3.500000000000000,0.000000000000000,1.000000000000000,9.68531513214111
Chatham,51.369999999999997,0.520000000000000,1.000000000000000,1.000000000000000,1.000000000000000,1.000000000000000,1.000000000000000,1.000000000000000,1.000000000000000,1.000000000000000,2.000000000000000,5.000000000000000,5.000000000000000,22.000000000000000,49.000000000000000,0.000000000000000,0.000000000000000,0.000000000000000,0.000000000000000,21.000000000000000,0.000000000000000,4.000000000000000,14.0197114944458
Chelmsford,51.736100000000000,0.479800000000000,0.000000000000000,0.000000000000000,1.000000000000000,1.000000000000000,1.000000000000000,1.000000000000000,2.000000000000000,2.000000000000000,2.000000000000000,3.000000000000000,3.000000000000000,4.000000000000000,7.000000000000000,,0.000000000000000,1.000000000000000,0.000000000000000,1.000000000000000,1.000000000000000,0.500000000000000,4.96148872375488
Cheltenham,51.899999999999999,-2.066700000000000,0.000000000000000,0.000000000000000,1.000000000000000,1.000000000000000,1.000000000000000,1.000000000000000,1.000000000000000,1.000000000000000,1.000000000000000,2.000000000000000,2.000000000000000,3.000000000000000,35.000000000000000,,0.000000000000000,0.000000000000000,0.000000000000000,2.000000000000000,0.000000000000000,1.000000000000000,17.3507595062256
Chester,53.189999999999998,-2.890000000000000,3.000000000000000,3.000000000000000,3.000000000000000,4.000000000000000,3.000000000000000,4.000000000000000,5.000000000000000,6.000000000000000,5.000000000000000,5.000000000000000,13.000000000000000,15.000000000000000,28.000000000000000,0.333333333333333,0.000000000000000,0.250000000000000,0.200000000000000,1.500000000000000,0.666666666666667,0.000000000000000,11.0808906555176
Chichester,50.836500000000001,-0.779200000000000,1.000000000000000,2.000000000000000,2.000000000000000,2.000000000000000,1.000000000000000,2.000000000000000,2.000000000000000,2.000000000000000,3.000000000000000,3.000000000000000,4.000000000000000,5.000000000000000,9.000000000000000,0.000000000000000,0.000000000000000,0.000000000000000,0.000000000000000,1.500000000000000,1.000000000000000,0.500000000000000,5.37662553787231
Colchester,51.891700000000000,0.903000000000000,2.000000000000000,3.000000000000000,5.000000000000000,7.000000000000000,4.000000000000000,5.000000000000000,6.000000000000000,8.000000000000000,9.000000000000000,10.000000000000000,9.000000000000000,12.000000000000000,19.000000000000000,1.333333333333333,-0.285714285714286,0.200000000000000,0.333333333333333,0.500000000000000,0.500000000000000,0.666666666666667,14.3855895996094
Congleton,53.161999999999999,-2.217000000000000,0.000000000000000,1.000000000000000,1.000000000000000,1.000000000000000,1.000000000000000,2.000000000000000,2.000000000000000,2.000000000000000,3.000000000000000,3.000000000000000,3.000000000000000,4.000000000000000,11.000000000000000,0.000000000000000,1.000000000000000,0.000000000000000,0.000000000000000,1.000000000000000,1.000000000000000,0.500000000000000,2.51400566101074
Coventry,52.408099999999997,-1.510600000000000,1.000000000000000,2.000000000000000,3.000000000000000,6.000000000000000,10.000000000000000,6.000000000000000,6.000000000000000,6.000000000000000,6.000000000000000,7.000000000000000,12.000000000000000,16.000000000000000,36.000000000000000,2.000000000000000,0.000000000000000,0.000000000000000,0.000000000000000,1.666666666666667,-0.400000000000000,0.166666666666667,33.6405563354492
Crawley,51.109200000000001,-0.187200000000000,0.000000000000000,0.000000000000000,1.000000000000000,1.000000000000000,1.000000000000000,1.000000000000000,1.000000000000000,1.000000000000000,1.000000000000000,1.000000000000000,1.000000000000000,2.000000000000000,3.000000000000000,,0.000000000000000,0.000000000000000,0.000000000000000,1.000000000000000,0.000000000000000,0.000000000000000,0.968167304992676
Croydon,51.372700000000002,-0.109900000000000,1.000000000000000,1.000000000000000,2.000000000000000,2.000000000000000,1.000000000000000,1.000000000000000,1.000000000000000,2.000000000000000,2.000000000000000,2.000000000000000,3.000000000000000,6.000000000000000,20.000000000000000,1.000000000000000,-0.500000000000000,0.000000000000000,1.000000000000000,2.000000000000000,0.000000000000000,1.000000000000000,20.3277053833008
Darlington,54.527000000000001,-1.552600000000000,0.000000000000000,1.000000000000000,1.000000000000000,1.000000000000000,1.000000000000000,1.000000000000000,1.000000000000000,1.000000000000000,1.000000000000000,1.000000000000000,2.000000000000000,5.000000000000000,11.000000000000000,0.000000000000000,0.000000000000000,0.000000000000000,0.000000000000000,4.000000000000000,0.000000000000000,0.000000000000000,2.28563690185547
Deal,51.222600000000000,1.400600000000000,0.000000000000000,1.000000000000000,1.000000000000000,1.000000000000000,1.000000000000000,1.000000000000000,1.000000000000000,2.000000000000000,2.000000000000000,2.000000000000000,3.000000000000000,5.000000000000000,7.000000000000000,0.000000000000000,0.000000000000000,0.000000000000000,1.000000000000000,1.500000000000000,0.000000000000000,1.000000000000000,6.15651082992554
Derby,52.916699999999999,-1.466700000000000,0.000000000000000,1.000000000000000,1.000000000000000,1.000000000000000,1.000000000000000,2.000000000000000,2.000000000000000,1.000000000000000,2.000000000000000,3.000000000000000,6.000000000000000,11.000000000000000,43.000000000000000,0.000000000000000,1.000000000000000,0.000000000000000,-0.500000000000000,10.000000000000000,1.000000000000000,0.500000000000000,21.2289505004883
Doncaster,53.515000000000001,-1.133000000000000,1.000000000000000,1.000000000000000,1.000000000000000,2.000000000000000,1.000000000000000,1.000000000000000,1.000000000000000,2.000000000000000,2.000000000000000,2.000000000000000,3.000000000000000,6.000000000000000,12.000000000000000,1.000000000000000,-0.500000000000000,0.000000000000000,1.000000000000000,2.000000000000000,0.000000000000000,1.000000000000000,4.82675075531006
Dover,51.129500000000000,1.308900000000000,1.000000000000000,2.000000000000000,2.000000000000000,2.000000000000000,1.000000000000000,2.000000000000000,2.000000000000000,3.000000000000000,3.000000000000000,4.000000000000000,7.000000000000000,11.000000000000000,28.000000000000000,0.000000000000000,0.000000000000000,0.000000000000000,0.500000000000000,2.666666666666667,1.000000000000000,1.000000000000000,17.551399230957
Dudley,52.508000000000003,-2.089000000000000,2.000000000000000,2.000000000000000,3.000000000000000,3.000000000000000,2.000000000000000,2.000000000000000,3.000000000000000,3.000000000000000,4.000000000000000,4.000000000000000,5.000000000000000,10.000000000000000,38.000000000000000,0.500000000000000,-0.333333333333333,0.500000000000000,0.000000000000000,2.333333333333333,0.500000000000000,0.333333333333333,7.60173225402832
Durham,54.776100000000000,-1.573300000000000,1.000000000000000,1.000000000000000,2.000000000000000,2.000000000000000,1.000000000000000,3.000000000000000,2.000000000000000,2.000000000000000,1.000000000000000,1.000000000000000,3.000000000000000,8.000000000000000,13.000000000000000,1.000000000000000,0.500000000000000,-0.333333333333333,0.000000000000000,3.000000000000000,1.000000000000000,-0.500000000000000,11.4660911560059
Ellesmere,52.908200000000001,-2.894400000000000,0.000000000000000,1.000000000000000,1.000000000000000,2.000000000000000,1.000000000000000,1.000000000000000,1.000000000000000,2.000000000000000,2.000000000000000,2.000000000000000,2.000000000000000,3.000000000000000,7.000000000000000,1.000000000000000,-0.500000000000000,0.000000000000000,1.000000000000000,0.500000000000000,0.000000000000000,1.000000000000000,3.80338311195374
Ely,52.398099999999999,0.262200000000000,2.000000000000000,2.000000000000000,2.000000000000000,3.000000000000000,2.000000000000000,2.000000000000000,3.000000000000000,3.000000000000000,4.000000000000000,4.000000000000000,4.000000000000000,5.000000000000000,12.000000000000000,0.500000000000000,-0.333333333333333,0.500000000000000,0.000000000000000,0.666666666666667,0.500000000000000,0.333333333333333,13.9081382751465
Exeter,50.716700000000003,-3.533300000000000,3.000000000000000,4.000000000000000,5.000000000000000,6.000000000000000,4.000000000000000,7.000000000000000,8.000000000000000,9.000000000000000,11.000000000000000,14.000000000000000,16.000000000000000,17.000000000000000,39.000000000000000,0.500000000000000,0.166666666666667,0.142857142857143,0.125000000000000,0.888888888888889,1.000000000000000,0.750000000000000,14.1365776062012
Frome,51.227899999999998,-2.321500000000000,1.000000000000000,1.000000000000000,1.000000000000000,1.000000000000000,1.000000000000000,1.000000000000000,1.000000000000000,1.000000000000000,1.000000000000000,1.000000000000000,3.000000000000000,9.000000000000000,12.000000000000000,0.000000000000000,0.000000000000000,0.000000000000000,0.000000000000000,8.000000000000000,0.000000000000000,0.000000000000000,12.4514322280884
Gateshead,54.950000000000003,-1.600000000000000,1.000000000000000,1.000000000000000,1.000000000000000,2.000000000000000,1.000000000000000,1.000000000000000,1.000000000000000,2.000000000000000,2.000000000000000,2.000000000000000,4.000000000000000,9.000000000000000,26.000000000000000,1.000000000000000,-0.500000000000000,0.000000000000000,1.000000000000000,3.500000000000000,0.000000000000000,1.000000000000000,10.9585857391357
Gillingham,51.384999999999998,0.550000000000000,0.000000000000000,1.000000000000000,1.000000000000000,1.000000000000000,1.000000000000000,1.000000000000000,1.000000000000000,1.000000000000000,1.000000000000000,1.000000000000000,2.000000000000000,5.000000000000000,8.000000000000000,0.000000000000000,0.000000000000000,0.000000000000000,0.000000000000000,4.000000000000000,0.000000000000000,0.000000000000000,11.388729095459
Gillingham,51.037500000000001,-2.274800000000000,0.000000000000000,1.000000000000000,1.000000000000000,1.000000000000000,1.000000000000000,1.000000000000000,1.000000000000000,1.000000000000000,1.000000000000000,1.000000000000000,2.000000000000000,5.000000000000000,8.000000000000000,0.000000000000000,0.000000000000000,0.000000000000000,0.000000000000000,4.000000000000000,0.000000000000000,0.000000000000000,6.63341426849365
Gosport,50.794800000000002,-1.124300000000000,0.000000000000000,0.000000000000000,0.000000000000000,0.000000000000000,0.000000000000000,0.000000000000000,0.000000000000000,0.000000000000000,1.000000000000000,1.000000000000000,3.000000000000000,8.000000000000000,7.000000000000000,,,,,,,,9.82188034057617
Gravesend,51.441499999999998,0.368500000000000,0.000000000000000,0.000000000000000,0.000000000000000,1.000000000000000,1.000000000000000,1.000000000000000,1.000000000000000,2.000000000000000,2.000000000000000,2.000000000000000,2.000000000000000,2.000000000000000,17.000000000000000,,0.000000000000000,0.000000000000000,1.000000000000000,0.000000000000000,0.000000000000000,1.000000000000000,6.40988492965698
Great Yarmouth,52.606000000000002,1.729000000000000,0.000000000000000,0.000000000000000,1.000000000000000,2.000000000000000,1.000000000000000,4.000000000000000,6.000000000000000,8.000000000000000,9.000000000000000,10.000000000000000,10.000000000000000,17.000000000000000,31.000000000000000,,1.000000000000000,0.500000000000000,0.333333333333333,1.125000000000000,5.000000000000000,0.666666666666667,7.69265747070312
Greenock,55.950000000000003,-4.765000000000000,0.000000000000000,0.000000000000000,0.000000000000000,0.000000000000000,0.000000000000000,0.000000000000000,0.000000000000000,1.000000000000000,2.000000000000000,3.000000000000000,4.000000000000000,17.000000000000000,37.000000000000000,,,,,16.000000000000000,,,
Grimsby,53.559500000000000,-0.068000000000000,1.000000000000000,1.000000000000000,1.000000000000000,1.000000000000000,1.000000000000000,1.000000000000000,1.000000000000000,1.000000000000000,1.000000000000000,1.000000000000000,1.000000000000000,2.000000000000000,9.000000000000000,0.000000000000000,0.000000000000000,0.000000000000000,0.000000000000000,1.000000000000000,0.000000000000000,0.000000000000000,12.8391351699829
Guildford,51.236499999999999,-0.570300000000000,0.000000000000000,1.000000000000000,1.000000000000000,1.000000000000000,1.000000000000000,1.000000000000000,1.000000000000000,1.000000000000000,1.000000000000000,1.000000000000000,2.000000000000000,3.000000000000000,7.000000000000000,0.000000000000000,0.000000000000000,0.000000000000000,0.000000000000000,2.000000000000000,0.000000000000000,0.000000000000000,10.3619194030762
Halifax,53.725000000000001,-1.863000000000000,0.000000000000000,0.000000000000000,1.000000000000000,1.000000000000000,1.000000000000000,2.000000000000000,2.000000000000000,2.000000000000000,3.000000000000000,3.000000000000000,6.000000000000000,12.000000000000000,34.000000000000000,,1.000000000000000,0.000000000000000,0.000000000000000,5.000000000000000,1.000000000000000,0.500000000000000,2.12915802001953
Hartlepool,54.689999999999998,-1.210000000000000,0.000000000000000,0.000000000000000,0.000000000000000,0.000000000000000,0.000000000000000,0.000000000000000,0.000000000000000,0.000000000000000,0.000000000000000,1.000000000000000,1.000000000000000,1.000000000000000,10.000000000000000,,,,,,,,1.302330493927
Haslingden,53.704999999999998,-2.328000000000000,0.000000000000000,0.000000000000000,0.000000000000000,0.000000000000000,0.000000000000000,0.000000000000000,0.000000000000000,0.000000000000000,1.000000000000000,1.000000000000000,2.000000000000000,6.000000000000000,8.000000000000000,,,,,,,,1.53113734722137
Hereford,52.056500000000000,-2.716000000000000,2.000000000000000,2.000000000000000,3.000000000000000,3.000000000000000,2.000000000000000,5.000000000000000,4.000000000000000,3.000000000000000,3.000000000000000,2.000000000000000,5.000000000000000,7.000000000000000,12.000000000000000,0.500000000000000,0.666666666666667,-0.200000000000000,-0.250000000000000,1.333333333333333,1.000000000000000,-0.500000000000000,10.6086835861206
Huddersfield,53.645000000000003,-1.779800000000000,0.000000000000000,1.000000000000000,1.000000000000000,2.000000000000000,1.000000000000000,2.000000000000000,2.000000000000000,2.000000000000000,3.000000000000000,3.000000000000000,5.000000000000000,11.000000000000000,31.000000000000000,1.000000000000000,0.000000000000000,0.000000000000000,0.000000000000000,4.500000000000000,1.000000000000000,0.500000000000000,3.11298131942749
Ilkeston,52.970999999999997,-1.309000000000000,1.000000000000000,1.000000000000000,1.000000000000000,1.000000000000000,1.000000000000000,1.000000000000000,1.000000000000000,1.000000000000000,1.000000000000000,1.000000000000000,1.000000000000000,2.000000000000000,6.000000000000000,0.000000000000000,0.000000000000000,0.000000000000000,0.000000000000000,1.000000000000000,0.000000000000000,0.000000000000000,20.7968883514404
Ipswich,52.059399999999997,1.155600000000000,1.000000000000000,2.000000000000000,2.000000000000000,2.000000000000000,1.000000000000000,3.000000000000000,3.000000000000000,4.000000000000000,6.000000000000000,8.000000000000000,8.000000000000000,11.000000000000000,33.000000000000000,0.000000000000000,0.500000000000000,0.000000000000000,0.333333333333333,1.750000000000000,2.000000000000000,1.666666666666667,8.63960742950439
Kendal,54.326000000000001,-2.745000000000000,0.000000000000000,1.000000000000000,1.000000000000000,2.000000000000000,1.000000000000000,1.000000000000000,1.000000000000000,2.000000000000000,2.000000000000000,2.000000000000000,4.000000000000000,7.000000000000000,10.000000000000000,1.000000000000000,-0.500000000000000,0.000000000000000,1.000000000000000,2.500000000000000,0.000000000000000,1.000000000000000,0.0170381236821413
Kidderminster,52.388500000000001,-2.249000000000000,0.000000000000000,1.000000000000000,1.000000000000000,2.000000000000000,1.000000000000000,1.000000000000000,1.000000000000000,2.000000000000000,2.000000000000000,2.000000000000000,3.000000000000000,6.000000000000000,17.000000000000000,1.000000000000000,-0.500000000000000,0.000000000000000,1.000000000000000,2.000000000000000,0.000000000000000,1.000000000000000,3.68167209625244
Lancaster,54.046999999999997,-2.801000000000000,1.000000000000000,1.000000000000000,1.000000000000000,1.000000000000000,1.000000000000000,1.000000000000000,1.000000000000000,1.000000000000000,1.000000000000000,1.000000000000000,8.000000000000000,9.000000000000000,15.000000000000000,0.000000000000000,0.000000000000000,0.000000000000000,0.000000000000000,8.000000000000000,0.000000000000000,0.000000000000000,4.58382320404053
Leeds,53.799700000000001,-1.549200000000000,0.000000000000000,1.000000000000000,2.000000000000000,3.000000000000000,2.000000000000000,3.000000000000000,4.000000000000000,5.000000000000000,5.000000000000000,5.000000000000000,16.000000000000000,53.000000000000000,172.000000000000000,2.000000000000000,0.000000000000000,0.333333333333333,0.250000000000000,9.600000000000000,1.000000000000000,0.250000000000000,11.3330993652344
Leek,53.107999999999997,-2.023400000000000,0.000000000000000,0.000000000000000,1.000000000000000,1.000000000000000,1.000000000000000,1.000000000000000,1.000000000000000,2.000000000000000,2.000000000000000,2.000000000000000,2.000000000000000,3.000000000000000,9.000000000000000,,0.000000000000000,0.000000000000000,1.000000000000000,0.500000000000000,0.000000000000000,1.000000000000000,7.41859006881714
Leicester,52.633299999999998,-1.133300000000000,2.000000000000000,2.000000000000000,3.000000000000000,3.000000000000000,3.000000000000000,3.000000000000000,3.000000000000000,4.000000000000000,4.000000000000000,5.000000000000000,8.000000000000000,17.000000000000000,61.000000000000000,0.500000000000000,0.000000000000000,0.000000000000000,0.333333333333333,3.250000000000000,0.000000000000000,0.666666666666667,8.85296154022217
Lichfield,52.683500000000002,-1.826500000000000,2.000000000000000,2.000000000000000,2.000000000000000,2.000000000000000,1.000000000000000,2.000000000000000,2.000000000000000,2.000000000000000,3.000000000000000,3.000000000000000,4.000000000000000,5.000000000000000,7.000000000000000,0.000000000000000,0.000000000000000,0.000000000000000,0.000000000000000,1.500000000000000,1.000000000000000,0.500000000000000,0.58521980047226
Lincoln,53.234400000000001,-0.538600000000000,8.000000000000000,8.000000000000000,8.000000000000000,9.000000000000000,5.000000000000000,4.000000000000000,3.000000000000000,3.000000000000000,3.000000000000000,4.000000000000000,6.000000000000000,7.000000000000000,18.000000000000000,0.125000000000000,-0.555555555555556,-0.250000000000000,0.000000000000000,1.333333333333333,-0.400000000000000,0.333333333333333,17.9792671203613
Liverpool,53.399999999999999,-2.983300000000000,0.000000000000000,1.000000000000000,1.000000000000000,1.000000000000000,1.000000000000000,1.000000000000000,1.000000000000000,2.000000000000000,3.000000000000000,6.000000000000000,22.000000000000000,83.000000000000000,376.000000000000000,0.000000000000000,0.000000000000000,0.000000000000000,1.000000000000000,40.500000000000000,0.000000000000000,5.000000000000000,4.12302350997925
London,51.507199999999997,-0.127500000000000,11.000000000000000,15.000000000000000,40.000000000000000,70.000000000000000,45.000000000000000,50.000000000000000,100.000000000000000,200.000000000000000,339.000000000000000,575.000000000000000,675.000000000000000,948.000000000000000,2236.000000000000000,3.666666666666667,-0.285714285714286,1.000000000000000,1.000000000000000,3.740000000000000,1.222222222222222,4.750000000000000,94.9382095336914
Loughborough,52.770499999999998,-1.204600000000000,0.000000000000000,0.000000000000000,0.000000000000000,0.000000000000000,0.000000000000000,1.000000000000000,2.000000000000000,2.000000000000000,2.000000000000000,2.000000000000000,3.000000000000000,5.000000000000000,11.000000000000000,,,1.000000000000000,0.000000000000000,1.500000000000000,,0.000000000000000,17.2617855072021
Luton,51.878300000000003,-0.414700000000000,0.000000000000000,1.000000000000000,1.000000000000000,1.000000000000000,1.000000000000000,1.000000000000000,2.000000000000000,2.000000000000000,2.000000000000000,2.000000000000000,2.000000000000000,3.000000000000000,11.000000000000000,0.000000000000000,0.000000000000000,1.000000000000000,0.000000000000000,0.500000000000000,1.000000000000000,0.000000000000000,17.1434020996094
Macclesfield,53.258099999999999,-2.127400000000000,0.000000000000000,1.000000000000000,1.000000000000000,2.000000000000000,1.000000000000000,2.000000000000000,3.000000000000000,3.000000000000000,4.000000000000000,4.000000000000000,7.000000000000000,11.000000000000000,39.000000000000000,1.000000000000000,0.000000000000000,0.500000000000000,0.000000000000000,2.666666666666667,2.000000000000000,0.333333333333333,0.431318879127502
Maidstone,51.271999999999998,0.529000000000000,0.000000000000000,0.000000000000000,0.000000000000000,0.000000000000000,0.000000000000000,2.000000000000000,2.000000000000000,3.000000000000000,3.000000000000000,4.000000000000000,5.000000000000000,8.000000000000000,21.000000000000000,,,0.000000000000000,0.500000000000000,1.666666666666667,,1.000000000000000,19.4445095062256
Manchester,53.479399999999998,-2.245300000000000,2.000000000000000,2.000000000000000,2.000000000000000,2.000000000000000,1.000000000000000,3.000000000000000,6.000000000000000,10.000000000000000,9.000000000000000,8.000000000000000,18.000000000000000,84.000000000000000,303.000000000000000,0.000000000000000,0.500000000000000,1.000000000000000,0.666666666666667,7.400000000000000,5.000000000000000,0.333333333333333,2.64168524742126
Mansfield,53.149999999999999,-1.200000000000000,0.000000000000000,1.000000000000000,1.000000000000000,1.000000000000000,1.000000000000000,1.000000000000000,1.000000000000000,1.000000000000000,1.000000000000000,1.000000000000000,3.000000000000000,6.000000000000000,11.000000000000000,0.000000000000000,0.000000000000000,0.000000000000000,0.000000000000000,5.000000000000000,0.000000000000000,0.000000000000000,11.5136165618896
Margate,51.384999999999998,1.383800000000000,0.000000000000000,0.000000000000000,0.000000000000000,1.000000000000000,1.000000000000000,1.000000000000000,1.000000000000000,1.000000000000000,1.000000000000000,1.000000000000000,2.000000000000000,5.000000000000000,10.000000000000000,,0.000000000000000,0.000000000000000,0.000000000000000,4.000000000000000,0.000000000000000,0.000000000000000,0
Middlesbrough,54.576700000000002,-1.235500000000000,0.000000000000000,0.000000000000000,0.000000000000000,0.000000000000000,0.000000000000000,0.000000000000000,0.000000000000000,0.000000000000000,0.000000000000000,0.000000000000000,0.000000000000000,0.000000000000000,6.000000000000000,,,,,,,,5.1289644241333
Milton Keynes,52.039999999999999,-0.760000000000000,0.000000000000000,0.000000000000000,0.000000000000000,0.000000000000000,0.000000000000000,0.000000000000000,0.000000000000000,0.000000000000000,0.000000000000000,0.000000000000000,0.000000000000000,0.000000000000000,0.000000000000000,,,,,,,,4.60266017913818
Nantwich,53.067000000000000,-2.522000000000000,1.000000000000000,1.000000000000000,1.000000000000000,1.000000000000000,1.000000000000000,2.000000000000000,3.000000000000000,3.000000000000000,4.000000000000000,4.000000000000000,3.000000000000000,3.000000000000000,6.000000000000000,0.000000000000000,1.000000000000000,0.500000000000000,0.000000000000000,0.000000000000000,2.000000000000000,0.333333333333333,3.55074119567871
Newbury,51.401000000000003,-1.323000000000000,1.000000000000000,1.000000000000000,1.000000000000000,1.000000000000000,1.000000000000000,3.000000000000000,3.000000000000000,2.000000000000000,2.000000000000000,2.000000000000000,3.000000000000000,4.000000000000000,7.000000000000000,0.000000000000000,2.000000000000000,0.000000000000000,-0.333333333333333,1.000000000000000,2.000000000000000,-0.333333333333333,4.91067886352539
Newport,50.701000000000001,-1.288300000000000,0.000000000000000,1.000000000000000,1.000000000000000,1.000000000000000,1.000000000000000,1.000000000000000,2.000000000000000,2.000000000000000,2.000000000000000,2.000000000000000,3.000000000000000,4.000000000000000,20.000000000000000,0.000000000000000,0.000000000000000,1.000000000000000,0.000000000000000,1.000000000000000,1.000000000000000,0.000000000000000,4.53532838821411
Newport,52.769100000000002,-2.378700000000000,0.000000000000000,1.000000000000000,1.000000000000000,1.000000000000000,1.000000000000000,1.000000000000000,2.000000000000000,2.000000000000000,2.000000000000000,2.000000000000000,3.000000000000000,4.000000000000000,20.000000000000000,0.000000000000000,0.000000000000000,1.000000000000000,0.000000000000000,1.000000000000000,1.000000000000000,0.000000000000000,11.3179454803467
North Shields,55.009700000000002,-1.444800000000000,0.000000000000000,0.000000000000000,1.000000000000000,1.000000000000000,1.000000000000000,1.000000000000000,1.000000000000000,1.000000000000000,1.000000000000000,1.000000000000000,4.000000000000000,7.000000000000000,11.000000000000000,,0.000000000000000,0.000000000000000,0.000000000000000,6.000000000000000,0.000000000000000,0.000000000000000,13.1453800201416
Norwich,52.630000000000003,1.297000000000000,5.000000000000000,7.000000000000000,10.000000000000000,13.000000000000000,6.000000000000000,10.000000000000000,14.000000000000000,20.000000000000000,24.000000000000000,30.000000000000000,37.000000000000000,37.000000000000000,68.000000000000000,0.857142857142857,-0.230769230769231,0.400000000000000,0.428571428571429,0.850000000000000,1.333333333333333,1.142857142857143,25.8320236206055
Nottingham,52.950000000000003,-1.150000000000000,1.000000000000000,2.000000000000000,3.000000000000000,4.000000000000000,2.000000000000000,3.000000000000000,3.000000000000000,4.000000000000000,4.000000000000000,5.000000000000000,12.000000000000000,29.000000000000000,99.000000000000000,1.000000000000000,-0.250000000000000,0.000000000000000,0.333333333333333,6.250000000000000,0.500000000000000,0.666666666666667,14.7022609710693
Nuneaton,52.523000000000003,-1.468000000000000,0.000000000000000,0.000000000000000,1.000000000000000,1.000000000000000,1.000000000000000,1.000000000000000,1.000000000000000,2.000000000000000,2.000000000000000,2.000000000000000,3.000000000000000,5.000000000000000,5.000000000000000,,0.000000000000000,0.000000000000000,1.000000000000000,1.500000000000000,0.000000000000000,1.000000000000000,21.2722434997559
Oldham,53.544400000000003,-2.116900000000000,1.000000000000000,1.000000000000000,1.000000000000000,1.000000000000000,1.000000000000000,1.000000000000000,1.000000000000000,1.000000000000000,1.000000000000000,1.000000000000000,3.000000000000000,12.000000000000000,53.000000000000000,0.000000000000000,0.000000000000000,0.000000000000000,0.000000000000000,11.000000000000000,0.000000000000000,0.000000000000000,1.22716784477234
Oxford,51.751899999999999,-1.257800000000000,2.000000000000000,2.000000000000000,3.000000000000000,3.000000000000000,2.000000000000000,5.000000000000000,5.000000000000000,5.000000000000000,6.000000000000000,8.000000000000000,8.000000000000000,12.000000000000000,29.000000000000000,0.500000000000000,0.666666666666667,0.000000000000000,0.000000000000000,1.400000000000000,1.500000000000000,0.600000000000000,36.9402160644531
Plymouth,50.371400000000001,-4.142200000000000,0.000000000000000,0.000000000000000,1.000000000000000,7.000000000000000,7.000000000000000,3.000000000000000,5.000000000000000,7.000000000000000,7.000000000000000,8.000000000000000,14.000000000000000,16.000000000000000,52.000000000000000,,-0.571428571428571,0.666666666666667,0.400000000000000,1.285714285714286,-0.285714285714286,0.600000000000000,9.66795253753662
Poole,50.716700000000003,-1.983300000000000,0.000000000000000,0.000000000000000,1.000000000000000,1.000000000000000,1.000000000000000,1.000000000000000,1.000000000000000,2.000000000000000,2.000000000000000,2.000000000000000,3.000000000000000,5.000000000000000,9.000000000000000,,0.000000000000000,0.000000000000000,1.000000000000000,1.500000000000000,0.000000000000000,1.000000000000000,3.33099341392517
Portsmouth,50.805799999999998,-1.087200000000000,0.000000000000000,1.000000000000000,1.000000000000000,1.000000000000000,1.000000000000000,2.000000000000000,1.000000000000000,1.000000000000000,2.000000000000000,3.000000000000000,10.000000000000000,33.000000000000000,72.000000000000000,0.000000000000000,1.000000000000000,-0.500000000000000,0.000000000000000,32.000000000000000,0.000000000000000,2.000000000000000,8.72164535522461
Preston,53.759000000000000,-2.699000000000000,0.000000000000000,1.000000000000000,1.000000000000000,1.000000000000000,1.000000000000000,1.000000000000000,1.000000000000000,2.000000000000000,2.000000000000000,2.000000000000000,6.000000000000000,12.000000000000000,70.000000000000000,0.000000000000000,0.000000000000000,0.000000000000000,1.000000000000000,5.000000000000000,0.000000000000000,1.000000000000000,3.40536999702454
Preston,53.756599999999999,-0.196900000000000,0.000000000000000,1.000000000000000,1.000000000000000,1.000000000000000,1.000000000000000,1.000000000000000,1.000000000000000,2.000000000000000,2.000000000000000,2.000000000000000,6.000000000000000,12.000000000000000,70.000000000000000,0.000000000000000,0.000000000000000,0.000000000000000,1.000000000000000,5.000000000000000,0.000000000000000,1.000000000000000,11.7558631896973
Reading,51.454200000000000,-0.973100000000000,0.000000000000000,1.000000000000000,1.000000000000000,2.000000000000000,2.000000000000000,4.000000000000000,4.000000000000000,5.000000000000000,5.000000000000000,5.000000000000000,7.000000000000000,10.000000000000000,21.000000000000000,1.000000000000000,1.000000000000000,0.000000000000000,0.250000000000000,1.000000000000000,1.000000000000000,0.250000000000000,11.6625156402588
Rochdale,53.613599999999998,-2.161000000000000,0.000000000000000,1.000000000000000,1.000000000000000,1.000000000000000,1.000000000000000,1.000000000000000,1.000000000000000,1.000000000000000,1.000000000000000,1.000000000000000,4.000000000000000,13.000000000000000,42.000000000000000,0.000000000000000,0.000000000000000,0.000000000000000,0.000000000000000,12.000000000000000,0.000000000000000,0.000000000000000,0.650179862976074
Rochester,51.375000000000000,0.500000000000000,1.000000000000000,2.000000000000000,2.000000000000000,2.000000000000000,1.000000000000000,2.000000000000000,2.000000000000000,3.000000000000000,3.000000000000000,3.000000000000000,5.000000000000000,7.000000000000000,17.000000000000000,0.000000000000000,0.000000000000000,0.000000000000000,0.500000000000000,1.333333333333333,1.000000000000000,0.500000000000000,13.4747934341431
Rotherham,53.430000000000000,-1.357000000000000,1.000000000000000,2.000000000000000,2.000000000000000,3.000000000000000,2.000000000000000,3.000000000000000,2.000000000000000,2.000000000000000,1.000000000000000,1.000000000000000,3.000000000000000,8.000000000000000,14.000000000000000,0.500000000000000,0.000000000000000,-0.333333333333333,0.000000000000000,3.000000000000000,0.000000000000000,-0.500000000000000,4.68521070480347
Rowley Regis,52.479999999999997,-2.060000000000000,0.000000000000000,1.000000000000000,1.000000000000000,2.000000000000000,1.000000000000000,1.000000000000000,1.000000000000000,1.000000000000000,1.000000000000000,1.000000000000000,2.000000000000000,5.000000000000000,14.000000000000000,1.000000000000000,-0.500000000000000,0.000000000000000,0.000000000000000,4.000000000000000,0.000000000000000,0.000000000000000,8.79846858978271
Rugby,52.369999999999997,-1.260000000000000,0.000000000000000,1.000000000000000,1.000000000000000,1.000000000000000,1.000000000000000,1.000000000000000,1.000000000000000,1.000000000000000,1.000000000000000,1.000000000000000,1.000000000000000,1.000000000000000,6.000000000000000,0.000000000000000,0.000000000000000,0.000000000000000,0.000000000000000,0.000000000000000,0.000000000000000,0.000000000000000,5.17583417892456
Salford,53.482999999999997,-2.293100000000000,0.000000000000000,0.000000000000000,1.000000000000000,1.000000000000000,1.000000000000000,1.000000000000000,1.000000000000000,1.000000000000000,1.000000000000000,1.000000000000000,3.000000000000000,18.000000000000000,85.000000000000000,,0.000000000000000,0.000000000000000,0.000000000000000,17.000000000000000,0.000000000000000,0.000000000000000,2.73775243759155
Salisbury,51.073999999999998,-1.793600000000000,0.000000000000000,0.000000000000000,1.000000000000000,8.000000000000000,5.000000000000000,8.000000000000000,7.000000000000000,6.000000000000000,6.000000000000000,7.000000000000000,9.000000000000000,8.000000000000000,12.000000000000000,,0.000000000000000,-0.125000000000000,-0.142857142857143,0.333333333333333,0.400000000000000,0.000000000000000,15.3927755355835
Sandwich,51.274700000000003,1.338900000000000,0.000000000000000,0.000000000000000,1.000000000000000,1.000000000000000,1.000000000000000,1.000000000000000,1.000000000000000,2.000000000000000,2.000000000000000,2.000000000000000,3.000000000000000,4.000000000000000,5.000000000000000,,0.000000000000000,0.000000000000000,1.000000000000000,1.000000000000000,0.000000000000000,1.000000000000000,3.58231854438782
Scarborough,54.277299999999997,-0.401700000000000,1.000000000000000,1.000000000000000,1.000000000000000,2.000000000000000,1.000000000000000,1.000000000000000,2.000000000000000,2.000000000000000,3.000000000000000,4.000000000000000,5.000000000000000,6.000000000000000,13.000000000000000,1.000000000000000,-0.500000000000000,1.000000000000000,0.000000000000000,2.000000000000000,1.000000000000000,1.000000000000000,5.42524480819702
Sedgley,52.539999999999999,-2.123000000000000,1.000000000000000,1.000000000000000,1.000000000000000,1.000000000000000,1.000000000000000,1.000000000000000,1.000000000000000,2.000000000000000,2.000000000000000,2.000000000000000,4.000000000000000,10.000000000000000,30.000000000000000,0.000000000000000,0.000000000000000,0.000000000000000,1.000000000000000,4.000000000000000,0.000000000000000,1.000000000000000,5.74368810653687
Sheffield,53.383299999999998,-1.466700000000000,0.000000000000000,1.000000000000000,1.000000000000000,1.000000000000000,2.000000000000000,2.000000000000000,3.000000000000000,3.000000000000000,3.000000000000000,3.000000000000000,12.000000000000000,46.000000000000000,135.000000000000000,0.000000000000000,1.000000000000000,0.500000000000000,0.000000000000000,14.333333333333334,0.500000000000000,0.000000000000000,4.16892766952515
Shepton Mallet,51.192999999999998,-2.546000000000000,0.000000000000000,1.000000000000000,1.000000000000000,2.000000000000000,1.000000000000000,1.000000000000000,1.000000000000000,1.000000000000000,1.000000000000000,2.000000000000000,3.000000000000000,5.000000000000000,5.000000000000000,1.000000000000000,-0.500000000000000,0.000000000000000,0.000000000000000,4.000000000000000,0.000000000000000,1.000000000000000,7.74498891830444
Shrewsbury,52.707999999999998,-2.754000000000000,2.000000000000000,2.000000000000000,3.000000000000000,3.000000000000000,4.000000000000000,4.000000000000000,5.000000000000000,5.000000000000000,6.000000000000000,7.000000000000000,8.000000000000000,15.000000000000000,20.000000000000000,0.500000000000000,0.333333333333333,0.250000000000000,0.000000000000000,2.000000000000000,0.250000000000000,0.400000000000000,11.8241262435913
Slough,51.509999999999998,-0.590000000000000,0.000000000000000,0.000000000000000,1.000000000000000,1.000000000000000,1.000000000000000,1.000000000000000,1.000000000000000,1.000000000000000,1.000000000000000,1.000000000000000,1.000000000000000,1.000000000000000,4.000000000000000,,0.000000000000000,0.000000000000000,0.000000000000000,0.000000000000000,0.000000000000000,0.000000000000000,11.5303373336792
South Shields,54.994999999999997,-1.430000000000000,1.000000000000000,1.000000000000000,1.000000000000000,1.000000000000000,1.000000000000000,2.000000000000000,3.000000000000000,4.000000000000000,5.000000000000000,6.000000000000000,8.000000000000000,11.000000000000000,29.000000000000000,0.000000000000000,1.000000000000000,0.500000000000000,0.333333333333333,1.750000000000000,2.000000000000000,1.000000000000000,13.6483488082886
Southampton,50.899999999999999,-1.400000000000000,1.000000000000000,1.000000000000000,2.000000000000000,3.000000000000000,2.000000000000000,3.000000000000000,3.000000000000000,4.000000000000000,3.000000000000000,3.000000000000000,3.000000000000000,8.000000000000000,35.000000000000000,2.000000000000000,0.000000000000000,0.000000000000000,0.333333333333333,1.000000000000000,0.500000000000000,0.000000000000000,19.3416481018066
Stafford,52.806600000000003,-2.117100000000000,1.000000000000000,1.000000000000000,1.000000000000000,1.000000000000000,1.000000000000000,1.000000000000000,1.000000000000000,1.000000000000000,1.000000000000000,2.000000000000000,3.000000000000000,4.000000000000000,12.000000000000000,0.000000000000000,0.000000000000000,0.000000000000000,0.000000000000000,3.000000000000000,0.000000000000000,1.000000000000000,11.0657892227173
Stockport,53.408299999999997,-2.149400000000000,0.000000000000000,0.000000000000000,1.000000000000000,1.000000000000000,1.000000000000000,1.000000000000000,1.000000000000000,1.000000000000000,1.000000000000000,2.000000000000000,3.000000000000000,20.000000000000000,54.000000000000000,,0.000000000000000,0.000000000000000,0.000000000000000,19.000000000000000,0.000000000000000,1.000000000000000,0.681263625621796
Stroud,51.744000000000000,-2.215000000000000,0.000000000000000,0.000000000000000,0.000000000000000,0.000000000000000,0.000000000000000,0.000000000000000,0.000000000000000,0.000000000000000,1.000000000000000,2.000000000000000,3.000000000000000,5.000000000000000,9.000000000000000,,,,,,,,10.1576547622681
Sunderland,54.906100000000002,-1.381100000000000,0.000000000000000,1.000000000000000,1.000000000000000,1.000000000000000,1.000000000000000,2.000000000000000,3.000000000000000,3.000000000000000,4.000000000000000,5.000000000000000,10.000000000000000,24.000000000000000,65.000000000000000,0.000000000000000,1.000000000000000,0.500000000000000,0.000000000000000,7.000000000000000,2.000000000000000,0.666666666666667,9.56423759460449
Sutton Coldfield,52.563000000000002,-1.822000000000000,0.000000000000000,1.000000000000000,1.000000000000000,1.000000000000000,1.000000000000000,1.000000000000000,1.000000000000000,2.000000000000000,2.000000000000000,2.000000000000000,2.000000000000000,3.000000000000000,5.000000000000000,0.000000000000000,0.000000000000000,0.000000000000000,1.000000000000000,0.500000000000000,0.000000000000000,1.000000000000000,1.95916354656219
Taunton,51.018999999999998,-3.100000000000000,2.000000000000000,2.000000000000000,2.000000000000000,2.000000000000000,1.000000000000000,3.000000000000000,3.000000000000000,2.000000000000000,2.000000000000000,2.000000000000000,3.000000000000000,5.000000000000000,10.000000000000000,0.000000000000000,0.500000000000000,0.000000000000000,-0.333333333333333,1.500000000000000,2.000000000000000,-0.333333333333333,13.5951833724976
Telford,52.676600000000001,-2.446900000000000,0.000000000000000,0.000000000000000,0.000000000000000,0.000000000000000,0.000000000000000,0.000000000000000,0.000000000000000,0.000000000000000,0.000000000000000,0.000000000000000,0.000000000000000,0.000000000000000,0.000000000000000,,,,,,,,16.6824932098389
Tiverton,50.902999999999999,-3.488000000000000,0.000000000000000,1.000000000000000,1.000000000000000,2.000000000000000,1.000000000000000,3.000000000000000,3.000000000000000,4.000000000000000,5.000000000000000,7.000000000000000,7.000000000000000,7.000000000000000,11.000000000000000,1.000000000000000,0.500000000000000,0.000000000000000,0.333333333333333,0.750000000000000,2.000000000000000,1.333333333333333,3.63587331771851
Tynemouth,55.017000000000003,-1.423000000000000,0.000000000000000,0.000000000000000,0.000000000000000,0.000000000000000,0.000000000000000,0.000000000000000,0.000000000000000,0.000000000000000,0.000000000000000,1.000000000000000,4.000000000000000,13.000000000000000,29.000000000000000,,,,,,,,12.4026384353638
Wakefield,53.680000000000000,-1.490000000000000,0.000000000000000,1.000000000000000,1.000000000000000,2.000000000000000,1.000000000000000,3.000000000000000,3.000000000000000,2.000000000000000,2.000000000000000,2.000000000000000,4.000000000000000,11.000000000000000,22.000000000000000,1.000000000000000,0.500000000000000,0.000000000000000,-0.333333333333333,4.500000000000000,2.000000000000000,-0.333333333333333,16.2267646789551
Walsall,52.579999999999998,-1.980000000000000,1.000000000000000,1.000000000000000,2.000000000000000,2.000000000000000,1.000000000000000,2.000000000000000,3.000000000000000,4.000000000000000,5.000000000000000,6.000000000000000,8.000000000000000,10.000000000000000,26.000000000000000,1.000000000000000,0.000000000000000,0.500000000000000,0.333333333333333,1.500000000000000,2.000000000000000,1.000000000000000,2.66435313224792
Warminster,51.204999999999998,-2.181000000000000,1.000000000000000,1.000000000000000,1.000000000000000,1.000000000000000,1.000000000000000,2.000000000000000,2.000000000000000,2.000000000000000,3.000000000000000,3.000000000000000,5.000000000000000,7.000000000000000,8.000000000000000,0.000000000000000,1.000000000000000,0.000000000000000,0.000000000000000,2.500000000000000,1.000000000000000,0.500000000000000,8.68979072570801
Warrington,53.391700000000000,-2.597200000000000,0.000000000000000,0.000000000000000,0.000000000000000,0.000000000000000,0.000000000000000,0.000000000000000,0.000000000000000,0.000000000000000,1.000000000000000,2.000000000000000,4.000000000000000,11.000000000000000,21.000000000000000,,,,,,,,4.08509969711304
Warwick,52.280000000000001,-1.590000000000000,1.000000000000000,1.000000000000000,2.000000000000000,2.000000000000000,1.000000000000000,1.000000000000000,2.000000000000000,3.000000000000000,3.000000000000000,3.000000000000000,4.000000000000000,6.000000000000000,11.000000000000000,1.000000000000000,-0.500000000000000,1.000000000000000,0.500000000000000,1.000000000000000,1.000000000000000,0.500000000000000,24.3897762298584
Wellington,52.700099999999999,-2.515700000000000,1.000000000000000,2.000000000000000,2.000000000000000,3.000000000000000,2.000000000000000,1.000000000000000,1.000000000000000,2.000000000000000,2.000000000000000,2.000000000000000,4.000000000000000,8.000000000000000,5.000000000000000,0.500000000000000,-0.666666666666667,0.000000000000000,1.000000000000000,3.000000000000000,-0.500000000000000,1.000000000000000,16.7594127655029
Wellington,50.975499999999997,-3.224300000000000,1.000000000000000,2.000000000000000,2.000000000000000,3.000000000000000,2.000000000000000,1.000000000000000,1.000000000000000,2.000000000000000,2.000000000000000,2.000000000000000,4.000000000000000,8.000000000000000,5.000000000000000,0.500000000000000,-0.666666666666667,0.000000000000000,1.000000000000000,3.000000000000000,-0.500000000000000,1.000000000000000,11.7989463806152
West Bromwich,52.518999999999998,-1.995000000000000,0.000000000000000,1.000000000000000,1.000000000000000,1.000000000000000,1.000000000000000,1.000000000000000,1.000000000000000,1.000000000000000,1.000000000000000,1.000000000000000,2.000000000000000,6.000000000000000,35.000000000000000,0.000000000000000,0.000000000000000,0.000000000000000,0.000000000000000,5.000000000000000,0.000000000000000,0.000000000000000,6.35105657577515
West Ham,51.534700000000001,0.007700000000000,1.000000000000000,1.000000000000000,2.000000000000000,2.000000000000000,1.000000000000000,2.000000000000000,2.000000000000000,3.000000000000000,3.000000000000000,3.000000000000000,4.000000000000000,6.000000000000000,19.000000000000000,1.000000000000000,0.000000000000000,0.000000000000000,0.500000000000000,1.000000000000000,1.000000000000000,0.500000000000000,72.7686157226562
Whitby,54.485799999999998,-0.620600000000000,1.000000000000000,1.000000000000000,1.000000000000000,2.000000000000000,1.000000000000000,1.000000000000000,1.000000000000000,2.000000000000000,2.000000000000000,2.000000000000000,4.000000000000000,7.000000000000000,8.000000000000000,1.000000000000000,-0.500000000000000,0.000000000000000,1.000000000000000,2.500000000000000,0.000000000000000,1.000000000000000,7.78094911575317
Whitehaven,54.548000000000002,-3.585500000000000,1.000000000000000,1.000000000000000,1.000000000000000,2.000000000000000,1.000000000000000,2.000000000000000,2.000000000000000,2.000000000000000,3.000000000000000,3.000000000000000,5.000000000000000,9.000000000000000,14.000000000000000,1.000000000000000,0.000000000000000,0.000000000000000,0.000000000000000,3.500000000000000,1.000000000000000,0.500000000000000,5.12153673171997
Wigan,53.544800000000002,-2.631800000000000,0.000000000000000,0.000000000000000,0.000000000000000,1.000000000000000,1.000000000000000,1.000000000000000,1.000000000000000,2.000000000000000,2.000000000000000,2.000000000000000,4.000000000000000,11.000000000000000,32.000000000000000,,0.000000000000000,0.000000000000000,1.000000000000000,4.500000000000000,0.000000000000000,1.000000000000000,3.94921374320984
Winchester,51.063200000000002,-1.308000000000000,3.000000000000000,4.000000000000000,5.000000000000000,6.000000000000000,3.000000000000000,3.000000000000000,3.000000000000000,3.000000000000000,3.000000000000000,3.000000000000000,4.000000000000000,6.000000000000000,14.000000000000000,0.500000000000000,-0.500000000000000,0.000000000000000,0.000000000000000,1.000000000000000,0.000000000000000,0.000000000000000,24.2682647705078
Windsor,51.479100000000003,-0.609500000000000,0.000000000000000,0.000000000000000,0.000000000000000,1.000000000000000,1.000000000000000,1.000000000000000,1.000000000000000,2.000000000000000,2.000000000000000,2.000000000000000,3.000000000000000,5.000000000000000,14.000000000000000,,0.000000000000000,0.000000000000000,1.000000000000000,1.500000000000000,0.000000000000000,1.000000000000000,12.3482027053833
Wolverhampton,52.583300000000001,-2.133300000000000,0.000000000000000,0.000000000000000,1.000000000000000,1.000000000000000,1.000000000000000,1.000000000000000,2.000000000000000,3.000000000000000,4.000000000000000,6.000000000000000,7.000000000000000,13.000000000000000,50.000000000000000,,0.000000000000000,1.000000000000000,0.500000000000000,3.333333333333333,1.000000000000000,2.000000000000000,4.92392349243164
Woolwich,51.488000000000000,0.063000000000000,0.000000000000000,0.000000000000000,0.000000000000000,0.000000000000000,0.000000000000000,1.000000000000000,1.000000000000000,2.000000000000000,2.000000000000000,2.000000000000000,7.000000000000000,24.000000000000000,52.000000000000000,,,0.000000000000000,1.000000000000000,11.000000000000000,,1.000000000000000,50.7461471557617
Worcester,52.192000000000000,-2.220000000000000,2.000000000000000,3.000000000000000,3.000000000000000,2.000000000000000,3.000000000000000,4.000000000000000,5.000000000000000,6.000000000000000,7.000000000000000,9.000000000000000,10.000000000000000,11.000000000000000,31.000000000000000,-0.333333333333333,1.000000000000000,0.250000000000000,0.200000000000000,0.833333333333333,0.666666666666667,0.800000000000000,18.3057518005371
Workington,54.636499999999998,-3.554900000000000,1.000000000000000,1.000000000000000,1.000000000000000,1.000000000000000,1.000000000000000,1.000000000000000,1.000000000000000,1.000000000000000,1.000000000000000,1.000000000000000,2.000000000000000,6.000000000000000,6.000000000000000,0.000000000000000,0.000000000000000,0.000000000000000,0.000000000000000,5.000000000000000,0.000000000000000,0.000000000000000,0.467359781265259
York,53.958300000000001,-1.080300000000000,6.000000000000000,8.000000000000000,11.000000000000000,8.000000000000000,12.000000000000000,7.000000000000000,9.000000000000000,12.000000000000000,12.000000000000000,12.000000000000000,11.000000000000000,17.000000000000000,41.000000000000000,0.000000000000000,-0.125000000000000,0.285714285714286,0.333333333333333,0.416666666666667,-0.250000000000000,0.333333333333333,30.5771903991699
