almsExpMean,almsExpSum,almsIncMean,almsIncSum,annuityExpMean,annuityExpSum,annuityIncMean,annuityIncSum,county,courtExpMean,courtExpSum,courtIncMean,courtIncSum,depHouse,educationExpMean,educationExpSum,educationIncMean,educationIncSum,feeExpMean,feeExpSum,feeIncMean,feeIncSum,founded,incomplete,infraExpMean,infraExpSum,infraIncMean,infraIncSum,ladyHouse,landExpMean,landExpSum,landIncMean,landIncSum,latitude,longitude,millExpMean,millExpSum,millIncMean,millIncSum,name,netInc,order,originalFoundation,pt,region,rurHouse,selected,subHouse,subPop,survival,synProxExpMean,synProxExpSum,synProxIncMean,synProxIncSum,titheExpMean,titheExpSum,titheIncMean,titheIncSum,totalExp,totalInc,transferExpMean,transferExpSum,transferIncMean,transferIncSum,unknownExpMean,unknownExpSum,unknownIncMean,unknownIncSum,urbHouse,urbPop,year,diss1536
,0.0,,0.0,,0.0,,0.0,NORTHUMBERLAND,,0.0,,0.0,,,0.0,,0.0,,0.0,,0.0,1147.0,1.0,,0.0,,0.0,0.0,,0.0,,0.0,55.41985,-1.71914,,0.0,,0.0,Alnwick Abbey,45540.0,Premonstratensian,,POINT (417877.800726039 614028.6587573307),5.0,1.0,1.0,0,0.0,3.0,,0.0,,0.0,,0.0,,0.0,,,,0.0,,0.0,,0.0,,0.0,0,0.0,1539.0,0
,0.0,,0.0,,0.0,,0.0,LINCOLNSHIRE,,0.0,,0.0,,,0.0,,0.0,-362.0,-1448.0,,0.0,,0.0,,0.0,,0.0,0.0,-136.5,-273.0,926.9230769230769,24100.0,53.40175,0.05614,,0.0,,0.0,Alvingham Priory,30890.0,Gilbertine,,POINT (536797.2622669461 391402.5005860073),4.0,1.0,,0,0.0,2.0,-590.0,-590.0,,0.0,,0.0,1952.0,9760.0,-3130.0,34020.0,-56.0,-168.0,,0.0,-11.0,-11.0,160.0,160.0,0,0.0,1538.0,0
-120.0,-120.0,,0.0,,0.0,,0.0,"YORKSHIRE, NORTH RIDING",,0.0,,0.0,,,0.0,,0.0,-160.0,-160.0,,0.0,1150.0,0.0,,0.0,,0.0,1.0,-9.0,-18.0,401.0,3208.0,54.310171,-1.203185,,0.0,,0.0,Arden Priory,2886.0,Benedictine,,POINT (451941.3073316825 490799.3476895731),5.0,1.0,1.0,0,0.0,0.0,,0.0,,0.0,,0.0,,0.0,-322.0,3208.0,-24.0,-24.0,,0.0,,0.0,,0.0,0,0.0,1536.0,1
,0.0,,0.0,,0.0,,0.0,CUMBERLAND,,0.0,,0.0,,,0.0,,0.0,,0.0,,0.0,1200.0,0.0,,0.0,,0.0,1.0,-12.0,-12.0,1573.0,3146.0,54.778725,-2.721439,,0.0,,0.0,Armathwaite Nunnery,3264.0,Benedictine,,POINT (353694.3167920378 542884.0757193058),5.0,1.0,1.0,0,0.0,1.0,-30.0,-30.0,,0.0,,0.0,1440.0,1440.0,,4586.0,-1280.0,-1280.0,,0.0,,0.0,,0.0,0,0.0,1537.0,0
,0.0,,0.0,,0.0,,0.0,"YORKSHIRE, WEST RIDING",,0.0,,0.0,,,0.0,,0.0,-120.0,-120.0,,0.0,1154.0,0.0,,0.0,,0.0,1.0,-19.0,-19.0,360.0,2160.0,53.9017,-1.562,,0.0,,0.0,Arthington Priory,2740.0,Benedictine,,POINT (428877.0700531336 445146.4318570277),5.0,1.0,,0,0.0,4.0,,0.0,,0.0,,0.0,2400.0,2400.0,-1819.0,4560.0,-560.0,-1680.0,,0.0,,0.0,,0.0,0,0.0,1540.0,0
-276.0,-276.0,,0.0,,0.0,,0.0,LINCOLNSHIRE,,0.0,,0.0,,,0.0,,0.0,-466.6666666666667,-2800.0,,0.0,1395.0,0.0,,0.0,,0.0,0.0,-374.5,-2247.0,1058.5657894736842,20112.75,53.5075,-0.7861,-27.0,-54.0,,0.0,Axholme Charterhouse,57062.75,Carthusian,,POINT (480605.1305021311 401884.4118804462),4.0,1.0,1.0,0,0.0,2.0,-84.0,-84.0,,0.0,,0.0,8145.5,24436.5,-12713.0,69775.75,-1450.4,-7252.0,745.3333333333334,2236.0,,0.0,23050.5,23050.5,0,0.0,1538.0,0
,0.0,,0.0,,0.0,,0.0,NORTHUMBERLAND,-1200.0,-1200.0,60.0,60.0,1.0,,0.0,,0.0,-310.0,-620.0,,0.0,1122.0,0.0,,0.0,,0.0,0.0,,0.0,1983.5,3967.0,55.606773,-1.724607,,0.0,,0.0,Bamburgh Priory,27989.0,Augustinian,,POINT (417449.5068752866 634830.6228631127),5.0,1.0,,0,0.0,1.0,,0.0,,0.0,,0.0,6480.0,25920.0,-1958.0,29947.0,-198.0,-198.0,,0.0,,0.0,,0.0,0,0.0,1537.0,0
-1022.5,-2045.0,,0.0,-960.0,-960.0,,0.0,LINCOLNSHIRE,,0.0,240.0,240.0,,,0.0,,0.0,-304.61538461538464,-3960.0,,0.0,,0.0,,0.0,,0.0,0.0,-469.3333333333333,-2816.0,1981.4,59442.0,53.220786999999994,-0.333501,,0.0,,0.0,Bardney Abbey,87913.0,Benedictine,,POINT (511364.099397575 370597.2037020244),4.0,1.0,,0,0.0,2.0,-630.0,-630.0,,0.0,,0.0,2626.5,42024.0,-15131.0,103044.0,-900.0,-3600.0,191.14285714285714,1338.0,-1120.0,-1120.0,,0.0,0,0.0,1538.0,0
-1031.3333333333333,-6188.0,,0.0,,0.0,,0.0,LINCOLNSHIRE,,0.0,,0.0,,,0.0,,0.0,-241.42857142857142,-3380.0,,0.0,1154.0,0.0,,0.0,,0.0,0.0,-69.5,-973.0,2898.818181818182,63774.0,53.247899999999994,-0.3685,,0.0,,0.0,Barlings Abbey,58149.5,Premonstratensian,,POINT (508958.8068559337 373559.2392032248),4.0,1.0,1.0,0,0.0,1.0,-308.5,-308.5,,0.0,,0.0,1584.0,7920.0,-15726.5,73877.0,-360.5833333333333,-2163.5,,0.0,-492.375,-1969.5,1092.0,2184.0,0,0.0,1537.0,0
,0.0,,0.0,,0.0,,0.0,"YORKSHIRE, NORTH RIDING",,0.0,,0.0,,,0.0,,0.0,-180.0,-360.0,,0.0,1162.0,0.0,,0.0,,0.0,1.0,-48.0,-96.0,351.46666666666664,5272.0,54.451615,-1.043745,,0.0,,0.0,Baysdale Priory,4816.0,Cistercian,,POINT (462101.3573122994 506666.1493989492),5.0,1.0,,0,0.0,0.0,,0.0,,0.0,,0.0,,0.0,-456.0,5272.0,,0.0,,0.0,,0.0,,0.0,0,0.0,1536.0,1
,0.0,,0.0,,0.0,,0.0,"YORKSHIRE, EAST RIDING",,0.0,,0.0,,,0.0,,0.0,,0.0,,0.0,1201.0,1.0,,0.0,,0.0,0.0,,0.0,,0.0,53.842641,-0.422826,,0.0,,0.0,Beverley Preceptory,39478.0,Augustinian,,POINT (503869.7990867372 439639.1764862762),5.0,,1.0,0,0.0,4.0,,0.0,,0.0,,0.0,,0.0,,,,0.0,,0.0,,0.0,,0.0,1,2.0,1540.0,0
,0.0,,0.0,,0.0,,0.0,NORTHUMBERLAND,,0.0,,0.0,1.0,,0.0,,0.0,,0.0,,0.0,1165.0,1.0,,0.0,,0.0,0.0,,0.0,,0.0,54.848211,-2.055905,,0.0,,0.0,Blanchland Abbey,9708.0,Premonstratensian,,POINT (396508.7811085367 550378.9616246199),5.0,1.0,1.0,0,0.0,3.0,,0.0,,0.0,,0.0,,0.0,,,,0.0,,0.0,,0.0,,0.0,0,0.0,1539.0,0
,0.0,,0.0,,0.0,,0.0,"YORKSHIRE, WEST RIDING",,0.0,,0.0,,,0.0,,0.0,,0.0,,0.0,1120.0,1.0,,0.0,,0.0,0.0,,0.0,,0.0,53.983708,-1.88836,,0.0,,0.0,Bolton Priory,50920.0,Augustinian,,POINT (407418.9380448578 454187.9560232977),5.0,1.0,,0,0.0,4.0,,0.0,,0.0,,0.0,,0.0,,,,0.0,,0.0,,0.0,,0.0,0,0.0,1540.0,0
,0.0,,0.0,,0.0,,0.0,LINCOLNSHIRE,,0.0,,0.0,,,0.0,,0.0,-300.0,-1200.0,,0.0,1138.0,0.0,,0.0,,0.0,0.0,-90.6875,-362.75,1765.4166666666667,26481.25,52.76632200000001,-0.37555600000000006,,0.0,,0.0,Bourne Abbey,40254.5,Augustinian,,POINT (509700.5836696727 319981.5397276344),4.0,1.0,1.0,0,0.0,0.0,-610.0,-610.0,,0.0,,0.0,2976.6666666666665,17860.0,-7234.75,47489.25,-930.8,-4654.0,132.0,528.0,-48.0,-48.0,320.0,320.0,0,0.0,1536.0,1
-5360.0,-5360.0,,0.0,,0.0,,0.0,"YORKSHIRE, EAST RIDING",,0.0,,0.0,,,0.0,,0.0,-413.3333333333333,-4960.0,,0.0,1113.0,0.0,,0.0,,0.0,0.0,-124.35714285714286,-1741.0,1476.7413793103449,85651.0,54.094307,-0.202061,,0.0,,0.0,Bridlington Priory,131363.0,Augustinian,,POINT (517683.6377366991 467981.4431692783),5.0,1.0,,0,0.0,2.0,-414.0,-828.0,,0.0,,0.0,3401.6,34016.0,-32481.0,163845.0,-1471.6666666666667,-17660.0,,0.0,-640.0,-1920.0,3680.0,44160.0,0,0.0,1538.0,0
,0.0,,0.0,,0.0,,0.0,NORTHUMBERLAND,,0.0,,0.0,,,0.0,,0.0,,0.0,,0.0,1133.0,1.0,,0.0,,0.0,0.0,,0.0,,0.0,55.278899,-1.818879,,0.0,,0.0,Brinkburn Priory,16549.0,Augustinian,,POINT (411604.8407398563 598321.3336416837),5.0,1.0,,0,0.0,0.0,,0.0,,0.0,,0.0,,0.0,,,,0.0,,0.0,,0.0,,0.0,0,0.0,1536.0,1
,0.0,,0.0,,0.0,,0.0,LINCOLNSHIRE,,0.0,80.0,80.0,,,0.0,,0.0,-248.0,-2480.0,,0.0,,0.0,,0.0,,0.0,0.0,-80.0,-80.0,904.6190476190476,18997.0,53.275422,-0.351087,,0.0,560.0,1120.0,Bullington Priory,38015.0,Gilbertine,,POINT (510050.0221642166 376647.3123081618),4.0,1.0,,0,0.0,2.0,-277.0,-554.0,,0.0,,0.0,3460.0,27680.0,,,-775.6,-7756.0,298.0,1192.0,,0.0,,0.0,0,0.0,1538.0,0
-1680.0,-1680.0,,0.0,,0.0,,0.0,LANCASHIRE,,0.0,,0.0,,,0.0,,0.0,-580.0,-2320.0,,0.0,1190.0,0.0,,0.0,,0.0,0.0,-132.0,-264.0,2764.0,11056.0,53.583099,-2.85629,,0.0,,0.0,Burscough Priory,19290.0,Augustinian,,POINT (343407.5916208436 409951.4985366525),5.0,1.0,,0,0.0,0.0,,0.0,,0.0,,0.0,4381.5,17526.0,-11691.0,30982.0,-1485.6,-7428.0,,0.0,,0.0,,0.0,0,0.0,1536.0,1
,0.0,,0.0,,0.0,,0.0,"YORKSHIRE, NORTH RIDING",,0.0,,0.0,,,0.0,,0.0,,0.0,,0.0,1147.0,1.0,,0.0,,0.0,0.0,,0.0,,0.0,54.203499,-1.158693,,0.0,,0.0,Byland Abbey,57232.0,Cistercian,,POINT (454977.4148113366 478963.9707041119),5.0,1.0,1.0,0,0.0,3.0,,0.0,,0.0,,0.0,,0.0,-13632.0,70864.0,,0.0,,0.0,,0.0,,0.0,0,0.0,1539.0,0
,0.0,,0.0,,0.0,,0.0,CUMBERLAND,,0.0,,0.0,1.0,,0.0,,0.0,-352.0,-1760.0,,0.0,1134.0,0.0,,0.0,,0.0,0.0,-80.0,-160.0,2115.0,25380.0,54.444167,-3.466111,,0.0,,0.0,Calder Abbey,11151.5,Cistercian,,POINT (305021.574496484 506407.0475994326),5.0,1.0,,0,0.0,0.0,-133.5,-133.5,,0.0,,0.0,1235.0,3705.0,-4253.5,15405.0,-640.0,-640.0,,0.0,,0.0,,0.0,0,0.0,1536.0,1
,0.0,,0.0,,0.0,,0.0,LANCASHIRE,,0.0,,0.0,,,0.0,,0.0,-480.0,-2400.0,,0.0,1190.0,0.0,,0.0,,0.0,0.0,,0.0,4530.75,18123.0,54.201107,-2.951892,,0.0,1440.0,1440.0,Cartmel Priory,19035.0,Augustinian,,POINT (338001.8106513256 478790.3461040723),5.0,1.0,1.0,0,0.0,0.0,,0.0,,0.0,,0.0,3140.0,6280.0,,27595.0,-400.0,-800.0,,0.0,-1440.0,-1440.0,,0.0,0,0.0,1536.0,1
,0.0,,0.0,,0.0,,0.0,LINCOLNSHIRE,,0.0,,0.0,,,0.0,,0.0,-320.0,-640.0,,0.0,,0.0,,0.0,,0.0,0.0,,0.0,356.2,7124.0,53.085461,-0.33148,,0.0,,0.0,Catley Priory,8142.0,Gilbertine,,POINT (511849.715543421 355547.3165923227),4.0,1.0,,0,0.0,2.0,-122.0,-122.0,,0.0,,0.0,1080.0,2160.0,-1142.0,9284.0,-190.0,-380.0,,0.0,,0.0,,0.0,0,0.0,1538.0,0
,0.0,,0.0,,0.0,,0.0,"YORKSHIRE, EAST RIDING",,0.0,,0.0,,,0.0,,0.0,,0.0,,0.0,1290.0,1.0,,0.0,,0.0,0.0,,0.0,,0.0,53.74899,-0.335365,,0.0,,0.0,"Charterhouse, Kingston upon Hull",41980.0,Carthusian,,POINT (509868.0689475008 429352.1419597105),5.0,1.0,,0,0.0,2.0,,0.0,,0.0,,0.0,,0.0,,,,0.0,,0.0,,0.0,,0.0,0,0.0,1538.0,0
-4480.0,-4480.0,,0.0,,0.0,,0.0,LANCASHIRE,,0.0,,0.0,,,0.0,,0.0,-405.0,-6480.0,,0.0,1204.0,0.0,,0.0,,0.0,0.0,-129.45454545454547,-1424.0,983.1222222222223,44240.5,53.976723,-2.874581,,0.0,,0.0,Cockersand Abbey,37848.5,Premonstratensian,,POINT (342735.9392193832 453759.5916945636),5.0,1.0,,0,0.0,3.0,-69.0,-138.0,,0.0,,0.0,5500.0,11000.0,-16936.0,54784.5,-736.6666666666666,-4420.0,,0.0,,0.0,,0.0,0,0.0,1539.0,0
-2520.0,-2520.0,,0.0,,0.0,,0.0,LANCASHIRE,,0.0,,0.0,,,0.0,,0.0,-181.33333333333334,-1088.0,,0.0,1181.0,0.0,,0.0,,0.0,0.0,,0.0,1039.0833333333333,12469.0,54.173143,-3.067932,,0.0,,0.0,Conishead Priory,23282.0,Augustinian,,POINT (330385.2549711518 475787.3437334781),5.0,1.0,1.0,0,0.0,0.0,,0.0,,0.0,,0.0,2164.5,17316.0,-6503.0,29785.0,-405.6,-2028.0,,0.0,-800.0,-800.0,,0.0,0,0.0,1536.0,1
-720.0,-720.0,,0.0,,0.0,,0.0,"YORKSHIRE, NORTH RIDING",,0.0,,0.0,,,0.0,,0.0,-270.0,-2160.0,,0.0,1212.0,0.0,,0.0,,0.0,0.0,-16.875,-135.0,741.8823529411765,25224.0,54.2732,-1.8387,,0.0,,0.0,Coverham Abbey,38619.0,Premonstratensian,,POINT (410602.2222178697 486405.2305707731),5.0,1.0,1.0,0,0.0,0.0,,0.0,,0.0,,0.0,4368.0,21840.0,-8837.0,49856.0,-534.1538461538462,-6944.0,,0.0,,0.0,2880.0,2880.0,0,0.0,1536.0,1
-2242.0,-4484.0,,0.0,-800.0,-800.0,,0.0,LINCOLNSHIRE,,0.0,100.0,200.0,,,0.0,,0.0,-388.46153846153845,-15150.0,,0.0,,0.0,,0.0,,0.0,0.0,-32.77777777777778,-295.0,3780.9007936507937,238196.75,52.676414,-0.16499,,0.0,36.0,36.0,Croyland Abbey,260110.5,Benedictine,,POINT (524161.1445090808 310323.1995965751),4.0,1.0,,0,0.0,3.0,-391.875,-783.75,,0.0,,0.0,2833.03125,45328.5,-32040.75,292151.25,-1579.3333333333333,-9476.0,305.05263157894734,5796.0,,0.0,223.22222222222223,2009.0,0,0.0,1539.0,0
-2047.0,-4094.0,,0.0,,0.0,,0.0,"YORKSHIRE, WEST RIDING",,0.0,,0.0,,,0.0,,0.0,,0.0,,0.0,1135.0,0.0,,0.0,,0.0,0.0,-86.14285714285714,-603.0,641.4090909090909,14111.0,53.74777199999999,-0.99006,,0.0,,0.0,Drax Priory,78995.0,Augustinian,,POINT (466699.4452277687 428404.1873826046),5.0,1.0,,0,0.0,-1.0,,0.0,,0.0,,0.0,680.0,680.0,-44045.0,29259.0,-760.0,-2280.0,2280.0,13680.0,,0.0,,0.0,0,0.0,1535.0,0
,0.0,,0.0,,0.0,,0.0,DURHAM,,0.0,480.0,480.0,,,0.0,,0.0,-604.4444444444445,-16320.0,,0.0,1083.0,0.0,,0.0,,0.0,0.0,-314.36538461538464,-8173.5,1942.4238095238095,203954.5,54.77321,-1.57683,,0.0,,0.0,Durham Priory,327969.0,Benedictine,,POINT (427321.3967025032 542113.303486921),5.0,,1.0,0,0.0,4.0,,0.0,,0.0,,0.0,5948.823529411765,101130.0,-59809.5,387778.5,-1735.0,-20820.0,424.2105263157895,8060.0,,0.0,7122.0,64098.0,1,3.0,1540.0,0
-3302.5,-3302.5,,0.0,,0.0,,0.0,"YORKSHIRE, NORTH RIDING",,0.0,,0.0,,,0.0,,0.0,-196.66666666666666,-2360.0,,0.0,1152.0,0.0,,0.0,,0.0,0.0,-69.08333333333333,-1658.0,1747.4130434782608,40190.5,54.39825499999999,-1.7170239999999999,,0.0,,0.0,Easby Abbey,26855.0,Premonstratensian,,POINT (418470.223080034 500344.9968357909),5.0,1.0,,0,0.0,1.0,-126.0,-126.0,,0.0,,0.0,2482.0,4964.0,-18459.0,45314.0,-846.1538461538462,-11000.0,160.0,160.0,,0.0,,0.0,0,0.0,1537.0,0
-940.0,-940.0,,0.0,,0.0,,0.0,"YORKSHIRE, NORTH RIDING",,0.0,,0.0,,,0.0,,0.0,-320.0,-960.0,,0.0,1197.0,0.0,,0.0,,0.0,0.0,-119.77272727272727,-1317.5,990.3076923076923,12874.0,54.53125899999999,-1.9051149999999997,,0.0,,0.0,Egglestone Abbey,6339.0,Premonstratensian,,POINT (406238.8141403938 515112.1016498894),5.0,1.0,1.0,0,0.0,4.0,,0.0,,0.0,,0.0,930.6666666666666,2792.0,-6939.0,15666.0,-465.3125,-3722.5,,0.0,,0.0,,0.0,0,0.0,1540.0,0
,0.0,,0.0,,0.0,,0.0,"YORKSHIRE, EAST RIDING",,0.0,,0.0,,,0.0,,0.0,-400.0,-800.0,,0.0,1200.0,0.0,,0.0,,0.0,0.0,-270.0,-810.0,882.25,14116.0,53.850972,-0.935333,,0.0,,0.0,Ellerton Priory,14986.0,Gilbertine,,POINT (470136.3475933871 439938.2520455178),5.0,1.0,,0,0.0,2.0,,0.0,,0.0,,0.0,1600.0,4800.0,-3744.0,18730.0,-691.3333333333334,-2074.0,,0.0,,0.0,,0.0,0,0.0,1538.0,0
,0.0,,0.0,,0.0,,0.0,"YORKSHIRE, NORTH RIDING",,0.0,,0.0,,,0.0,,0.0,,0.0,,0.0,1160.0,0.0,,0.0,,0.0,1.0,-16.666666666666668,-50.0,343.27272727272725,3776.0,54.371889,-1.879194,,0.0,,0.0,Ellerton in Swaledale Priory,3726.0,Cistercian,,POINT (407946.4565073701 497381.111310389),5.0,1.0,,0,0.0,0.0,,0.0,,0.0,,0.0,,0.0,-50.0,3776.0,,0.0,,0.0,,0.0,,0.0,0,0.0,1536.0,1
,0.0,,0.0,,0.0,,0.0,LINCOLNSHIRE,,0.0,24.0,24.0,,,0.0,,0.0,-250.0,-1000.0,,0.0,1166.0,0.0,,0.0,,0.0,0.0,-137.84615384615384,-1792.0,664.4545454545455,14618.0,53.599297,-0.436729,,0.0,,0.0,Elsham Priory,16808.0,Augustinian,,POINT (503550.3660849381 412547.6011123704),4.0,1.0,1.0,0,0.0,0.0,-270.0,-270.0,,0.0,,0.0,1300.0,5200.0,-3326.0,20134.0,-264.0,-264.0,,0.0,,0.0,116.0,232.0,0,0.0,1536.0,1
,0.0,,0.0,,0.0,,0.0,"YORKSHIRE, WEST RIDING",,0.0,,0.0,,,0.0,,0.0,-200.0,-400.0,,0.0,1189.0,0.0,,0.0,,0.0,1.0,-24.0,-24.0,913.6,4568.0,53.852922,-1.714608,,0.0,,0.0,Esholt Priory,3184.0,Cistercian,,POINT (418871.5933920516 439668.2917120298),5.0,1.0,,0,0.0,3.0,,0.0,,0.0,,0.0,,0.0,-1384.0,4568.0,-960.0,-960.0,,0.0,,0.0,,0.0,0,0.0,1539.0,0
,0.0,,0.0,,0.0,,0.0,DURHAM,,0.0,,0.0,1.0,,0.0,,0.0,,0.0,,0.0,,0.0,,0.0,,0.0,0.0,,0.0,,0.0,55.616568,-1.655133,,0.0,,0.0,Farne Abbey,3092.0,Benedictine,,POINT (421821.3072992499 635940.4125829763),5.0,1.0,1.0,0,0.0,2.0,,0.0,,0.0,,0.0,,0.0,,,,0.0,,0.0,,0.0,618.4,3092.0,0,0.0,1538.0,0
-2600.0,-2600.0,,0.0,,0.0,,0.0,DURHAM,,0.0,,0.0,1.0,,0.0,,0.0,-424.0,-2120.0,,0.0,1196.0,0.0,,0.0,,0.0,0.0,-362.3333333333333,-1087.0,874.9230769230769,11374.0,54.818277,-1.54058,,0.0,260.0,520.0,Finchale Abbey,29463.0,Benedictine,,POINT (429620.6604190918 547142.9513625051),5.0,1.0,,0,0.0,-1.0,,0.0,,0.0,,0.0,7280.0,14560.0,-5807.0,35270.0,,0.0,,0.0,,0.0,2120.0,4240.0,0,0.0,1535.0,0
,0.0,,0.0,,0.0,,0.0,LINCOLNSHIRE,,0.0,,0.0,,,0.0,,0.0,-120.0,-120.0,,0.0,,0.0,,0.0,,0.0,1.0,-22.0,-22.0,501.3333333333333,1504.0,53.3,-0.74,,0.0,,0.0,Fosse Priory,1722.0,Cistercian,,POINT (484069.7637362479 378854.1276984008),4.0,1.0,,0,0.0,3.0,-120.0,-120.0,,0.0,-480.0,-480.0,,0.0,-262.0,1984.0,,0.0,,0.0,,0.0,,0.0,0,0.0,1539.0,0
-4860.0,-4860.0,,0.0,,0.0,,0.0,"YORKSHIRE, WEST RIDING",-44.0,-44.0,120.0,120.0,,,0.0,,0.0,-400.258064516129,-12408.0,,0.0,1132.0,0.0,,0.0,,0.0,0.0,-389.2258064516129,-12066.0,1689.2072368421052,256759.5,54.109931,-1.581182,,0.0,,0.0,Fountains Abbey,214792.5,Cistercian,,POINT (427479.815870623 468307.3612422856),5.0,1.0,1.0,0,0.0,3.0,,0.0,,0.0,,0.0,9080.0,18160.0,-42735.0,263367.5,-2222.1666666666665,-13333.0,,0.0,-24.0,-24.0,6400.0,6400.0,0,0.0,1539.0,0
-1040.0,-1040.0,,0.0,,0.0,,0.0,LANCASHIRE,,0.0,1936.0,1936.0,1.0,,0.0,,0.0,-794.6,-15892.0,,0.0,1127.0,0.0,,0.0,,0.0,0.0,-446.6666666666667,-4020.0,1242.5972222222222,178934.0,54.135859,-3.198288,,0.0,1750.0,5250.0,Furness Abbey,193397.0,Cistercian,,POINT (321805.7531609035 471775.7525927424),5.0,1.0,1.0,0,0.0,1.0,,0.0,,0.0,,0.0,8498.4,42492.0,-33737.0,227134.0,-2184.1666666666665,-13105.0,1440.0,1440.0,,0.0,656.0,1968.0,0,0.0,1537.0,0
-5824.0,-5824.0,,0.0,,0.0,,0.0,"YORKSHIRE, NORTH RIDING",,0.0,,0.0,,,0.0,,0.0,-332.5,-5320.0,,0.0,1119.0,0.0,,0.0,,0.0,0.0,-390.61538461538464,-5078.0,858.2372881355932,50636.0,54.536134,-1.048754,,0.0,,0.0,Gisborough Priory,150760.0,Augustinian,,POINT (461649.6098828954 516065.9901145897),5.0,1.0,,0,0.0,4.0,,0.0,,0.0,,0.0,3172.7272727272725,69800.0,-20198.0,170958.0,-441.77777777777777,-3976.0,213.33333333333334,640.0,,0.0,3916.8333333333335,23501.0,0,0.0,1540.0,0
,0.0,,0.0,,0.0,,0.0,LINCOLNSHIRE,,0.0,,0.0,,,0.0,,0.0,-240.0,-480.0,,0.0,,0.0,,0.0,,0.0,1.0,-43.333333333333336,-260.0,517.4285714285714,3622.0,53.580653,-0.58043,,0.0,,0.0,Gokewell Priory,3994.0,Cistercian,,POINT (494082.578355129 410274.2915843246),4.0,1.0,,0,0.0,0.0,,0.0,,0.0,,0.0,,0.0,-788.0,4782.0,-48.0,-48.0,580.0,1160.0,,0.0,,0.0,0,0.0,1536.0,1
,0.0,,0.0,,0.0,,0.0,LINCOLNSHIRE,,0.0,,0.0,,,0.0,,0.0,-256.0,-1280.0,,0.0,,0.0,,0.0,,0.0,1.0,-18.25,-292.0,501.8157894736842,19069.0,53.27918,0.147045,,0.0,,0.0,Greenfield Priory,15169.0,Cistercian,,POINT (543249.8596801001 377947.2395570804),4.0,1.0,,0,0.0,0.0,,0.0,,0.0,,0.0,,0.0,-3972.0,19141.0,-2400.0,-2400.0,24.0,24.0,,0.0,,0.0,0,0.0,1536.0,1
-480.0,-480.0,,0.0,,0.0,,0.0,"YORKSHIRE, NORTH RIDING",,0.0,,0.0,,,0.0,,0.0,,0.0,,0.0,1200.0,0.0,,0.0,,0.0,0.0,,0.0,364.0,2912.0,54.440690999999994,-0.724497,,0.0,,0.0,Grosmont Priory,2912.0,Grandmontines,,POINT (482822.2128495759 505778.5104606757),5.0,1.0,,0,0.0,0.0,,0.0,,0.0,,0.0,,0.0,-480.0,3392.0,,0.0,,0.0,,0.0,,0.0,0,0.0,1536.0,1
,0.0,,0.0,,0.0,,0.0,LINCOLNSHIRE,,0.0,12.0,12.0,,,0.0,,0.0,-320.0,-640.0,,0.0,,0.0,,0.0,,0.0,0.0,-37.76470588235294,-642.0,1016.5714285714286,21348.0,53.302012,0.22581,,0.0,,0.0,Hagneby Abbey,21016.0,Premonstratensian,,POINT (548421.7516933547 380647.2620162753),4.0,1.0,,0,0.0,0.0,-118.0,-118.0,,0.0,,0.0,1120.0,1120.0,-2604.0,23620.0,-1200.0,-1200.0,,0.0,,0.0,,0.0,0,0.0,1536.0,1
-242.5,-485.0,,0.0,,0.0,,0.0,"YORKSHIRE, EAST RIDING",,0.0,,0.0,,,0.0,,0.0,-540.0,-2160.0,,0.0,1326.0,0.0,,0.0,,0.0,0.0,-306.4,-3064.0,2014.1666666666667,24170.0,53.764649,-0.420865,,0.0,,0.0,Haltemprice Priory,24003.0,Augustinian,,POINT (504191.643828437 430965.4527239106),5.0,1.0,,0,0.0,0.0,-372.0,-372.0,,0.0,,0.0,4200.0,16800.0,-18726.0,42730.0,-1253.2,-12532.0,,0.0,,0.0,,0.0,0,0.0,1536.0,1
,0.0,,0.0,,0.0,,0.0,"YORKSHIRE, WEST RIDING",,0.0,12.0,12.0,,,0.0,,0.0,-293.3333333333333,-880.0,,0.0,1170.0,0.0,,0.0,,0.0,1.0,-24.875,-199.0,354.2258064516129,10981.0,53.58767,-1.237362,,0.0,560.0,560.0,Hampole Priory,15188.0,Cistercian,,POINT (450582.025778694 410388.8706575638),5.0,1.0,1.0,0,0.0,3.0,,0.0,,0.0,,0.0,1213.7142857142858,8496.0,-5295.0,20483.0,-702.6666666666666,-4216.0,,0.0,,0.0,137.33333333333334,412.0,0,0.0,1539.0,0
-1196.0,-1196.0,,0.0,,0.0,,0.0,"YORKSHIRE, NORTH RIDING",,0.0,,0.0,,,0.0,,0.0,-120.0,-240.0,,0.0,1133.0,0.0,,0.0,,0.0,1.0,-54.0,-108.0,407.6666666666667,4892.0,54.531056,-0.8808640000000001,,0.0,,0.0,Handale Priory,3348.0,Cistercian,,POINT (472521.658115215 515660.7500990297),5.0,1.0,,0,0.0,3.0,,0.0,,0.0,,0.0,,0.0,-1544.0,4892.0,,0.0,,0.0,,0.0,,0.0,0,0.0,1539.0,0
,0.0,,0.0,,0.0,,0.0,LINCOLNSHIRE,,0.0,,0.0,,,0.0,,0.0,-328.0,-1640.0,,0.0,,0.0,,0.0,,0.0,0.0,-75.05,-750.5,461.54545454545456,15231.0,53.030543,-0.349397,-36.0,-36.0,1960.0,1960.0,Haverholme Priory,16990.5,Gilbertine,,POINT (510790.3858081267 349410.8810982427),4.0,1.0,,0,0.0,2.0,-488.0,-488.0,,0.0,,0.0,986.6666666666666,2960.0,-4194.5,21185.0,-506.6666666666667,-1520.0,440.0,880.0,,0.0,,0.0,0,0.0,1538.0,0
-23.0,-23.0,,0.0,,0.0,,0.0,"YORKSHIRE, EAST RIDING",,0.0,,0.0,,,0.0,,0.0,-240.0,-240.0,,0.0,1218.0,0.0,,0.0,,0.0,0.0,-320.0,-320.0,687.68,17192.0,53.91104399999999,-1.262419,,0.0,,0.0,Healaugh Park Priory,17407.0,Augustinian,,POINT (448550.1370987358 446348.8899845579),5.0,1.0,,0,0.0,-1.0,,0.0,,0.0,,0.0,2244.0,4488.0,-4591.0,21998.0,-572.5714285714286,-4008.0,320.0,320.0,,0.0,,0.0,0,0.0,1535.0,0
,0.0,,0.0,,0.0,,0.0,NORTHUMBERLAND,,0.0,,0.0,,,0.0,,0.0,,0.0,,0.0,1113.0,1.0,,0.0,,0.0,0.0,,0.0,,0.0,54.971541,-2.102745,,0.0,,0.0,Hexham Priory,29413.0,Augustinian,,POINT (393521.3380659808 564106.724574308),5.0,1.0,1.0,0,0.0,1.0,,0.0,,0.0,,0.0,,0.0,,,,0.0,,0.0,,0.0,,0.0,0,0.0,1537.0,0
,0.0,,0.0,,0.0,,0.0,LINCOLNSHIRE,,0.0,,0.0,,,0.0,,0.0,-240.0,-720.0,,0.0,1145.0,0.0,,0.0,,0.0,1.0,-54.666666666666664,-328.0,1680.0,6720.0,53.357499999999995,-0.7296299999999999,,0.0,,0.0,Heynings Priory,11810.0,Cistercian,,POINT (484647.1457324733 385262.8518120056),4.0,1.0,1.0,0,0.0,3.0,-90.0,-90.0,,0.0,,0.0,3680.0,7360.0,-2258.0,14080.0,-224.0,-1120.0,,0.0,,0.0,,0.0,0,0.0,1539.0,0
,0.0,,0.0,,0.0,,0.0,LINCOLNSHIRE,,0.0,60.0,60.0,1.0,,0.0,,0.0,-200.0,-400.0,,0.0,1122.0,0.0,,0.0,,0.0,0.0,-99.0,-99.0,1760.0,1760.0,53.582697,-0.826335,,0.0,,0.0,Hirst,1321.0,Augustinian,,POINT (477799.0433881151 410205.2538982612),4.0,1.0,,0,0.0,4.0,,0.0,,0.0,,0.0,,0.0,-499.0,1820.0,,0.0,,0.0,,0.0,,0.0,0,0.0,1540.0,0
-2400.0,-2400.0,,0.0,,0.0,,0.0,CUMBERLAND,,0.0,480.0,480.0,1.0,,0.0,,0.0,-310.0,-1240.0,,0.0,1150.0,0.0,,0.0,,0.0,0.0,-72.0,-72.0,1756.0108695652175,80776.5,54.8454,-3.2829,,0.0,940.0,3760.0,Holmcultram Abbey,114711.75,Cistercian,,POINT (317717.5225873401 550819.2641329003),5.0,1.0,,0,0.0,2.0,,0.0,,0.0,,0.0,9859.75,39439.0,-13732.0,128443.75,-1252.5,-10020.0,,0.0,,0.0,1337.3333333333333,4012.0,0,0.0,1538.0,0
,0.0,,0.0,,0.0,,0.0,NORTHUMBERLAND,,0.0,,0.0,,,0.0,,0.0,,0.0,,0.0,1120.0,1.0,,0.0,,0.0,1.0,,0.0,,0.0,55.318365,-2.072457,,0.0,,0.0,Holystone Priory,2706.0,Augustinian,,POINT (395500.4729246848 602701.0451623824),5.0,1.0,,0,0.0,3.0,,0.0,,0.0,,0.0,,0.0,,,,0.0,,0.0,,0.0,,0.0,0,0.0,1539.0,0
,0.0,,0.0,,0.0,,0.0,LANCASHIRE,,0.0,240.0,240.0,,,0.0,,0.0,,0.0,,0.0,1175.0,0.0,,0.0,,0.0,0.0,,0.0,658.05,6580.5,54.115407,-2.648124,,0.0,,0.0,Hornby Priory,6820.5,Premonstratensian,,POINT (357730.0900869755 469030.326491427),5.0,1.0,1.0,0,0.0,2.0,,0.0,,0.0,,0.0,,0.0,,,,0.0,,0.0,,0.0,,0.0,0,0.0,1538.0,0
-80.0,-80.0,,0.0,,0.0,,0.0,LINCOLNSHIRE,,0.0,,0.0,,,0.0,,0.0,-173.33333333333334,-520.0,,0.0,1172.0,0.0,,0.0,,0.0,0.0,-40.0,-40.0,437.35714285714283,6123.0,53.53406,-0.025960000000000004,,0.0,,0.0,Humberston Abbey,7695.0,Benedictine,,POINT (530932.2682973336 405965.800632645),4.0,,1.0,1,1.0,0.0,-200.0,-200.0,,0.0,,0.0,1360.0,4080.0,-2520.0,10215.0,-840.0,-1680.0,,0.0,,0.0,12.0,12.0,0,0.0,1536.0,1
-160.0,-160.0,,0.0,,0.0,,0.0,DURHAM,,0.0,,0.0,1.0,,0.0,,0.0,-240.0,-240.0,,0.0,1075.0,0.0,,0.0,,0.0,0.0,,0.0,1657.3333333333333,4972.0,54.980375,-1.472183,,0.0,,0.0,Jarrow Priory,9280.0,Benedictine,681.0,POINT (433879.9058367534 565212.1092496533),5.0,,1.0,1,3.0,0.0,,0.0,,0.0,,0.0,4720.0,4720.0,-400.0,2492.0,,0.0,,0.0,,0.0,,0.0,0,0.0,1536.0,1
-1554.0,-6216.0,,0.0,,0.0,,0.0,"YORKSHIRE, NORTH RIDING",,0.0,240.0,240.0,1.0,,0.0,,0.0,-425.2631578947368,-8080.0,,0.0,1145.0,0.0,,0.0,,0.0,0.0,-385.225,-7704.5,1745.8444444444444,78563.0,54.267011,-1.737966,,0.0,172.0,516.0,Jervaulx Abbey,55901.0,Cistercian,,POINT (417164.7796311001 485736.2134779507),5.0,1.0,,0,0.0,1.0,,0.0,,0.0,,0.0,5509.2,27546.0,-53424.0,109325.0,-1401.2631578947369,-26624.0,,0.0,-2400.0,-4800.0,1230.0,2460.0,0,0.0,1537.0,0
,0.0,,0.0,,0.0,,0.0,"YORKSHIRE, NORTH RIDING",,0.0,,0.0,,,0.0,,0.0,,0.0,,0.0,1118.0,1.0,,0.0,,0.0,1.0,,0.0,,0.0,54.266578,-0.915666,,0.0,,0.0,Keldholme Priory,7033.0,Cistercian,,POINT (470722.0471066122 486198.205848387),5.0,1.0,,0,0.0,0.0,,0.0,,0.0,,0.0,,0.0,,,,0.0,,0.0,,0.0,,0.0,0,0.0,1536.0,1
-168.0,-168.0,,0.0,,0.0,,0.0,"YORKSHIRE, EAST RIDING",,0.0,240.0,240.0,,,0.0,,0.0,-327.27272727272725,-3600.0,,0.0,1122.0,0.0,,0.0,,0.0,0.0,-101.0,-1212.0,870.75,38313.0,54.082917,-0.876959,,0.0,,0.0,Kirkham Priory,64629.0,Augustinian,,POINT (473567.5786633962 465803.2421861324),5.0,1.0,,0,0.0,3.0,,0.0,,0.0,,0.0,978.0,11736.0,-7556.0,72185.0,-320.25,-2562.0,590.0,2360.0,-14.0,-14.0,3747.2,18736.0,0,0.0,1539.0,0
,0.0,,0.0,,0.0,,0.0,"YORKSHIRE, WEST RIDING",,0.0,,0.0,,,0.0,,0.0,,0.0,,0.0,1236.0,0.0,,0.0,,0.0,1.0,-30.8,-154.0,471.5,3772.0,53.6951,-1.7371999999999999,,0.0,,0.0,Kirklees Priory,4658.0,Cistercian,,POINT (417450.2320801403 422103.3476685153),5.0,1.0,,0,0.0,3.0,,0.0,,0.0,,0.0,560.0,1120.0,-234.0,4892.0,-80.0,-80.0,,0.0,,0.0,,0.0,0,0.0,1539.0,0
,0.0,,0.0,,0.0,,0.0,LINCOLNSHIRE,,0.0,,0.0,1.0,,0.0,,0.0,-294.4,-5888.0,,0.0,1139.0,0.0,,0.0,,0.0,0.0,-414.0,-4140.0,1155.48046875,73950.75,53.138463,-0.223131,,0.0,908.0,3632.0,Kirkstead Abbey,92671.75,Cistercian,,POINT (518959.7896281908 361617.2607249817),4.0,1.0,1.0,0,0.0,1.0,-212.0,-212.0,,0.0,,0.0,,0.0,-12616.0,81287.75,-544.0,-1088.0,,0.0,-304.8,-1524.0,1840.0,3680.0,0,0.0,1537.0,0
-128.0,-128.0,,0.0,,0.0,,0.0,"YORKSHIRE, WEST RIDING",,0.0,,0.0,,,0.0,,0.0,-160.0,-640.0,,0.0,1257.0,0.0,,0.0,,0.0,0.0,-258.0,-516.0,1178.4,5892.0,53.995923,-1.457086,,0.0,,0.0,Knaresborough Priory,8531.0,Augustinian,,POINT (435690.1770480607 455677.4436469418),5.0,1.0,,0,0.0,2.0,-70.42857142857143,-493.0,,0.0,-840.0,-1680.0,1880.0,13160.0,-12309.0,20828.0,-428.3333333333333,-10280.0,,0.0,,0.0,,0.0,0,0.0,1538.0,0
-4088.0,-4088.0,,0.0,,0.0,,0.0,LINCOLNSHIRE,,0.0,20.0,20.0,,,0.0,,0.0,-240.0,-960.0,,0.0,1169.0,0.0,,0.0,,0.0,0.0,-44.375,-355.0,519.2571428571429,18174.0,53.032601,-0.258822,,0.0,,0.0,Kyme Priory,24244.0,Augustinian,,POINT (516858.511322758 349783.454293474),4.0,1.0,1.0,0,0.0,3.0,-610.0,-610.0,,0.0,,0.0,1282.2222222222222,11540.0,-8933.0,33177.0,-720.0,-2880.0,347.6666666666667,1043.0,-40.0,-40.0,,0.0,0,0.0,1539.0,0
,0.0,,0.0,,0.0,,0.0,CUMBERLAND,,0.0,,0.0,,,0.0,,0.0,-240.0,-240.0,,0.0,1169.0,0.0,,0.0,,0.0,0.0,-144.0,-144.0,641.0,6410.0,54.965772,-2.6953649999999993,,0.0,220.0,440.0,Lanercost Priory,18623.0,Augustinian,,POINT (355578.0989834502 563681.3320503273),5.0,1.0,,0,0.0,1.0,,0.0,,0.0,,0.0,1370.888888888889,12338.0,-565.0,19188.0,-181.0,-181.0,,0.0,,0.0,,0.0,0,0.0,1537.0,0
,0.0,,0.0,,0.0,,0.0,LINCOLNSHIRE,,0.0,,0.0,,,0.0,,0.0,-246.66666666666666,-740.0,,0.0,1150.0,0.0,,0.0,,0.0,1.0,-330.6666666666667,-992.0,443.3269230769231,5763.25,53.33744,0.040035,,0.0,,0.0,Legbourne Priory,9220.0,Cistercian,,POINT (535930.9563741193 384218.5661486663),4.0,1.0,1.0,0,0.0,0.0,-172.5,-345.0,,0.0,,0.0,1423.6,7118.0,-4621.0,13841.25,-699.2,-3496.0,,0.0,-8.0,-8.0,,0.0,0,0.0,1536.0,1
-1720.0,-1720.0,,0.0,,0.0,,0.0,DURHAM,,0.0,,0.0,1.0,,0.0,,0.0,-220.0,-880.0,,0.0,1122.0,0.0,,0.0,,0.0,0.0,-113.0,-113.0,413.14285714285717,5784.0,55.66931400000001,-1.800884,,0.0,,0.0,Lindisfarne Priory,11747.0,Benedictine,635.0,POINT (412623.7946087278 641774.7319349138),5.0,1.0,1.0,0,0.0,0.0,,0.0,,0.0,,0.0,8680.0,8680.0,-2713.0,14460.0,,0.0,,0.0,,0.0,,0.0,0,0.0,1536.0,1
,0.0,,0.0,,0.0,,0.0,LINCOLNSHIRE,,0.0,,0.0,1.0,,0.0,,0.0,-289.875,-2319.0,,0.0,,0.0,,0.0,,0.0,0.0,-117.890625,-1886.25,662.1415094339623,35093.5,53.37657000000001,0.027,,0.0,,0.0,Louth Park Abbey,35454.25,Cistercian,,POINT (534939.654679217 388546.2967712281),4.0,1.0,,0,0.0,0.0,-115.0,-230.0,,0.0,,0.0,2760.0,5520.0,-5172.25,40626.5,-233.33333333333334,-700.0,,0.0,-36.0,-36.0,,0.0,0,0.0,1536.0,1
-120.0,-120.0,,0.0,,0.0,,0.0,LANCASHIRE,,0.0,,0.0,1.0,,0.0,,0.0,-200.0,-1000.0,,0.0,1192.0,0.0,,0.0,,0.0,0.0,,0.0,1295.375,10363.0,53.7441,-2.9768,,0.0,,0.0,Lytham Priory,11754.0,Benedictine,,POINT (335675.5533797813 427966.1708223699),5.0,1.0,1.0,0,0.0,-1.0,-36.0,-36.0,,0.0,,0.0,2327.0,2327.0,-1156.0,12910.0,,0.0,160.0,160.0,,0.0,,0.0,0,0.0,1535.0,0
,0.0,,0.0,,0.0,,0.0,"YORKSHIRE, NORTH RIDING",,0.0,,0.0,,,0.0,,0.0,,0.0,,0.0,1151.0,1.0,,0.0,,0.0,0.0,,0.0,,0.0,54.142551,-0.779005,,0.0,,0.0,Malton Priory,47400.0,Gilbertine,,POINT (479860.9232984163 472544.0963700142),5.0,1.0,,0,0.0,3.0,,0.0,,0.0,,0.0,,0.0,,,,0.0,,0.0,,0.0,,0.0,0,0.0,1539.0,0
,0.0,,0.0,,0.0,,0.0,LINCOLNSHIRE,,0.0,14.0,56.0,,,0.0,,0.0,-233.33333333333334,-1400.0,,0.0,,0.0,,0.0,,0.0,0.0,-40.19230769230769,-1045.0,987.3518518518518,26658.5,53.285303000000006,0.22972600000000004,,0.0,,0.0,Markby Priory,31356.5,Augustinian,,POINT (548740.6448311636 378796.9268482041),4.0,1.0,,0,0.0,0.0,-20.0,-20.0,,0.0,,0.0,1552.0,7760.0,-7974.0,39330.5,-488.72727272727275,-5376.0,,0.0,-15.5,-31.0,438.8,4388.0,0,0.0,1536.0,1
-2215.5,-2215.5,,0.0,,0.0,,0.0,"YORKSHIRE, NORTH RIDING",,0.0,,0.0,,,0.0,,0.0,,0.0,,0.0,1156.0,0.0,,0.0,,0.0,1.0,-52.3,-523.0,414.65625,13269.0,54.375493,-1.8983329999999998,,0.0,,0.0,Marrick Priory,11738.5,Benedictine,,POINT (406702.4985515313 497780.1787718134),5.0,1.0,,0,0.0,4.0,,0.0,,0.0,,0.0,1176.0,2352.0,-3846.5,15585.0,-1120.0,-1120.0,,0.0,,0.0,,0.0,0,0.0,1540.0,0
-480.0,-480.0,,0.0,,0.0,,0.0,"YORKSHIRE, WEST RIDING",,0.0,,0.0,,,0.0,,0.0,-224.0,-1120.0,,0.0,1154.0,0.0,,0.0,,0.0,0.0,-113.0,-226.0,1290.08,32252.0,54.11794400000001,-1.107694,,0.0,,0.0,Marton Priory,36304.0,Augustinian,,POINT (458424.1866259699 469485.5646678667),5.0,1.0,1.0,0,0.0,0.0,,0.0,,0.0,,0.0,3898.6666666666665,11696.0,-7648.0,43948.0,-1928.6666666666667,-5786.0,,0.0,-48.0,-48.0,,0.0,0,0.0,1536.0,1
-3880.0,-3880.0,,0.0,,0.0,,0.0,"YORKSHIRE, EAST RIDING",,0.0,,0.0,1.0,,0.0,,0.0,-205.1818181818182,-2257.0,,0.0,1150.0,0.0,,0.0,,0.0,0.0,-146.11764705882354,-2484.0,1446.7916666666667,69446.0,53.83938,-0.34193,,0.0,,0.0,Meaux Abbey,71836.0,Cistercian,,POINT (509200.4953756023 439397.7212036592),5.0,1.0,,0,0.0,3.0,-55.5,-222.0,,0.0,,0.0,4608.75,36870.0,-35089.0,106925.0,-895.1851851851852,-24170.0,,0.0,-598.3333333333334,-1795.0,360.0,720.0,0,0.0,1539.0,0
-38.0,-76.0,,0.0,,0.0,,0.0,"YORKSHIRE, WEST RIDING",,0.0,,0.0,,,0.0,,0.0,-342.85714285714283,-2400.0,,0.0,1154.0,0.0,,0.0,,0.0,0.0,-65.04166666666667,-1561.0,1066.0,24518.0,53.554013,-1.4383720000000002,,0.0,320.0,640.0,Monk Bretton Priory,57402.0,Benedictine,,POINT (437305.3849425735 406520.691267721),5.0,,1.0,1,1.0,2.0,-81.6,-408.0,,0.0,,0.0,8083.2,40416.0,-20216.0,77618.0,-697.2173913043479,-16036.0,,0.0,,0.0,1911.5,3823.0,0,0.0,1538.0,0
-120.0,-120.0,,0.0,,0.0,,0.0,DURHAM,,0.0,,0.0,1.0,,0.0,,0.0,-240.0,-240.0,,0.0,,0.0,,0.0,,0.0,0.0,,0.0,1040.0,2080.0,54.913103,-1.374969,,0.0,,0.0,Monkwearmouth Abbey,6100.0,Benedictine,,POINT (440168.5212261133 557777.3332132649),5.0,,,0,0.0,0.0,,0.0,,0.0,,0.0,1095.0,4380.0,-360.0,6460.0,,0.0,,0.0,,0.0,,0.0,1,2.0,1536.0,1
-60.0,-60.0,,0.0,,0.0,,0.0,"YORKSHIRE, NORTH RIDING",,0.0,,0.0,,,0.0,,0.0,-346.6666666666667,-4160.0,,0.0,1398.0,0.0,,0.0,,0.0,0.0,-16.571428571428573,-116.0,1551.4186046511627,66711.0,54.379984,-1.31005,,0.0,,0.0,Mount Grace Priory,77554.0,Carthusian,,POINT (444912.573004359 498494.1018440716),5.0,1.0,,0,0.0,3.0,-98.5,-197.0,,0.0,,0.0,,0.0,-14197.0,91751.0,-1163.4285714285713,-8144.0,,0.0,,0.0,2276.181818181818,25038.0,0,0.0,1539.0,0
-587.6923076923077,-7640.0,,0.0,,0.0,,0.0,"YORKSHIRE, WEST RIDING",,0.0,,0.0,,,0.0,,0.0,,0.0,,0.0,1110.0,0.0,,0.0,,0.0,0.0,,0.0,2792.0,19544.0,54.257239,-1.274953,,0.0,,0.0,Mount St. John Preceptory,24585.0,Augustinian,,POINT (447332.395975536 484859.4481151492),5.0,1.0,,0,0.0,4.0,,0.0,,0.0,,0.0,3093.3333333333335,9280.0,-8258.0,32904.0,,0.0,,0.0,-378.0,-756.0,2160.0,2160.0,0,0.0,1540.0,0
,0.0,,0.0,,0.0,,0.0,"YORKSHIRE, NORTH RIDING",,0.0,,0.0,,,0.0,,0.0,-280.0,-840.0,,0.0,1154.0,0.0,,0.0,,0.0,1.0,,0.0,781.5555555555555,7034.0,54.095015,-1.08895,,0.0,,0.0,Moxby Priory,6274.0,Benedictine,,POINT (459682.2081540205 466950.0401925355),5.0,1.0,1.0,0,0.0,0.0,,0.0,,0.0,,0.0,720.0,720.0,-1480.0,7754.0,-640.0,-640.0,,0.0,,0.0,,0.0,0,0.0,1536.0,1
,0.0,,0.0,,0.0,,0.0,DURHAM,,0.0,,0.0,,,0.0,,0.0,-280.0,-560.0,,0.0,1156.0,0.0,,0.0,,0.0,1.0,-273.0,-546.0,337.7368421052632,6417.0,54.459642,-1.465424,,0.0,,0.0,Neasham Priory,5011.0,Benedictine,,POINT (434753.4309885831 507270.1509036797),5.0,1.0,1.0,0,0.0,4.0,,0.0,,0.0,,0.0,,0.0,-1346.0,6357.0,,0.0,,0.0,,0.0,,0.0,0,0.0,1540.0,0
,0.0,,0.0,,0.0,,0.0,LINCOLNSHIRE,,0.0,,0.0,,,0.0,,0.0,-270.0,-1080.0,,0.0,,0.0,,0.0,,0.0,0.0,-77.25,-1390.5,911.2727272727273,20048.0,52.931795,-0.719068,,0.0,,0.0,Newbo Abbey,17137.5,Premonstratensian,,POINT (486196.7542475364 337919.9194000979),4.0,1.0,,0,0.0,0.0,-72.0,-288.0,,0.0,,0.0,2560.0,7680.0,-10602.5,27740.0,-533.3333333333334,-3200.0,,0.0,-4686.0,-4686.0,,0.0,0,0.0,1536.0,1
-2574.0,-2574.0,,0.0,,0.0,,0.0,"YORKSHIRE, NORTH RIDING",,0.0,,0.0,,,0.0,,0.0,-485.7142857142857,-6800.0,,0.0,1145.0,0.0,,0.0,,0.0,0.0,-240.0,-240.0,1046.891304347826,48157.0,54.181333,-1.170248,,0.0,,0.0,Newburgh Priory,88179.0,Augustinian,,POINT (454252.648895558 476488.749523199),5.0,1.0,,0,0.0,3.0,,0.0,,0.0,,0.0,6314.0,50512.0,-21662.0,109841.0,-1224.3333333333333,-7346.0,960.0,1920.0,-257.05882352941177,-4370.0,3840.0,3840.0,0,0.0,1539.0,0
-1560.0,-1560.0,,0.0,,0.0,,0.0,"YORKSHIRE, WEST RIDING",,0.0,,0.0,,,0.0,,0.0,-432.7894736842105,-8223.0,,0.0,1220.0,0.0,,0.0,,0.0,0.0,,0.0,3124.5714285714284,21872.0,53.697041999999996,-1.447138,,0.0,,0.0,Newland Preceptory,31139.0,Augustinian,,POINT (436601.0817739256 422429.0610607052),5.0,,,1,3.0,4.0,,0.0,,0.0,,0.0,3920.0,19600.0,-17384.0,48524.0,-1920.0,-7680.0,2914.0,5828.0,,0.0,1812.0,1812.0,0,0.0,1540.0,0
,0.0,,0.0,,0.0,,0.0,NORTHUMBERLAND,,0.0,,0.0,1.0,,0.0,,0.0,,0.0,,0.0,1137.0,1.0,,0.0,,0.0,0.0,,0.0,,0.0,55.167244,-1.701037,,0.0,,0.0,Newminster Abbey,24107.0,Cistercian,,POINT (419144.0787209439 585921.3510945042),5.0,1.0,1.0,0,0.0,1.0,,0.0,,0.0,,0.0,,0.0,,,,0.0,,0.0,,0.0,,0.0,0,0.0,1537.0,0
,0.0,,0.0,,0.0,,0.0,LINCOLNSHIRE,,0.0,120.0,120.0,,,0.0,,0.0,-266.6666666666667,-1600.0,,0.0,,0.0,,0.0,,0.0,0.0,-46.25,-370.0,837.3690476190476,17584.75,53.603399,-0.296314,,0.0,,0.0,Newsham Abbey,23794.5,Premonstratensian,,POINT (512830.9228315682 413217.0682340054),4.0,1.0,,0,0.0,0.0,-190.0,-380.0,,0.0,,0.0,1466.6666666666667,8800.0,-3582.0,27376.5,-308.0,-1232.0,440.0,880.0,,0.0,,0.0,0,0.0,1536.0,1
,0.0,,0.0,,0.0,,0.0,LINCOLNSHIRE,,0.0,,0.0,,,0.0,,0.0,-240.0,-720.0,,0.0,,0.0,,0.0,,0.0,0.0,-34.333333333333336,-103.0,917.7272727272727,10095.0,52.65828,-0.454248,,0.0,,0.0,"Newstead Priory, Lincolnshire",8952.0,Augustinian,,POINT (504649.293501997 307847.4041115908),4.0,1.0,,0,0.0,0.0,,0.0,,0.0,,0.0,,0.0,-1143.0,10095.0,-160.0,-320.0,,0.0,,0.0,,0.0,0,0.0,1536.0,1
-536.0,-536.0,,0.0,,0.0,,0.0,LINCOLNSHIRE,,0.0,12.0,12.0,,,0.0,,0.0,-200.0,-400.0,,0.0,1171.0,0.0,,0.0,,0.0,0.0,-133.5,-267.0,750.6666666666666,9008.0,53.5271,-0.49350999999999995,,0.0,,0.0,Newstead-on-Ancholme Priory,9281.0,Gilbertine,,POINT (499962.8290348343 404435.0630375223),4.0,1.0,1.0,0,0.0,2.0,,0.0,,0.0,,0.0,1920.0,1920.0,-1659.0,10940.0,-228.0,-456.0,,0.0,,0.0,,0.0,0,0.0,1538.0,0
,0.0,,0.0,,0.0,,0.0,LINCOLNSHIRE,,0.0,,0.0,,,0.0,,0.0,-218.0,-436.0,,0.0,,0.0,,0.0,,0.0,0.0,-70.04166666666667,-840.5,689.40625,11030.5,53.169158,-0.389858,,0.0,,0.0,Nocton Priory,10364.0,Augustinian,,POINT (507730.7765383171 364768.0818931952),4.0,1.0,,0,0.0,0.0,-122.0,-122.0,,0.0,,0.0,,0.0,-3546.5,13910.5,-546.0,-2184.0,,0.0,,0.0,,0.0,0,0.0,1536.0,1
-283.5,-567.0,,0.0,,0.0,,0.0,"YORKSHIRE, EAST RIDING",,0.0,,0.0,,,0.0,,0.0,-373.3333333333333,-1120.0,,0.0,1140.0,0.0,,0.0,,0.0,0.0,-33.3125,-533.0,670.68,16767.0,53.718336,-0.50587,,0.0,,0.0,North Ferriby Priory,14414.0,Augustinian,,POINT (498696.9813541649 425692.2061912077),5.0,1.0,1.0,0,0.0,0.0,-144.0,-144.0,,0.0,,0.0,4400.0,4400.0,-8525.0,22939.0,-1026.6666666666667,-6160.0,,0.0,,0.0,1724.0,1724.0,0,0.0,1536.0,1
,0.0,,0.0,,0.0,,0.0,LINCOLNSHIRE,,0.0,,0.0,,,0.0,,0.0,-317.3333333333333,-952.0,,0.0,,0.0,,0.0,,0.0,0.0,-147.45454545454547,-1622.0,683.0769230769231,17760.0,53.419008,-0.06488,-25.0,-25.0,,0.0,North Ormsby Priory,19342.0,Gilbertine,,POINT (528700.2395487631 393097.2719736968),4.0,1.0,,0,0.0,2.0,-531.0,-531.0,,0.0,,0.0,960.0,5760.0,-4178.0,23520.0,-1040.0,-1040.0,,0.0,,0.0,,0.0,0,0.0,1538.0,0
-15939.0,-15939.0,,0.0,-640.0,-640.0,,0.0,"YORKSHIRE, WEST RIDING",,0.0,40.666666666666664,122.0,,,0.0,,0.0,-240.0,-1680.0,,0.0,1122.0,0.0,,0.0,,0.0,0.0,-104.625,-837.0,1742.2333333333333,52267.0,53.651667,-1.389167,,0.0,518.4,2592.0,Nostell Priory,118298.0,Augustinian,,POINT (440471.9901433042 417412.0775767533),5.0,1.0,,0,0.0,4.0,,0.0,,0.0,,0.0,1899.5405405405406,70283.0,-27253.0,145551.0,-741.4545454545455,-8156.0,1626.6666666666667,9760.0,,0.0,2871.5,11486.0,0,0.0,1540.0,0
,0.0,,0.0,,0.0,,0.0,LINCOLNSHIRE,,0.0,44.0,44.0,,,0.0,,0.0,-240.0,-960.0,,0.0,,0.0,,0.0,,0.0,1.0,-38.4,-192.0,584.1764705882352,9931.0,53.58464,-0.254778,,0.0,,0.0,Nun Cotham Priory,11251.0,Cistercian,,POINT (515630.2513549363 411196.8605898769),4.0,1.0,,0,0.0,3.0,-40.0,-40.0,,0.0,,0.0,920.0,2760.0,-1632.0,12883.0,-146.66666666666666,-440.0,80.0,160.0,,0.0,,0.0,0,0.0,1539.0,0
,0.0,,0.0,,0.0,,0.0,"YORKSHIRE, EAST RIDING",,0.0,,0.0,,,0.0,,0.0,,0.0,,0.0,1161.0,0.0,,0.0,,0.0,1.0,-16.0,-16.0,176.07692307692307,2289.0,53.924727,-0.703957,,0.0,,0.0,Nunburnholme Priory,2103.0,Benedictine,,POINT (485206.6977922011 448397.1017765062),5.0,1.0,1.0,0,0.0,0.0,,0.0,,0.0,,0.0,,0.0,-816.0,2439.0,-320.0,-320.0,,0.0,-480.0,-480.0,166.0,166.0,0,0.0,1536.0,1
-240.0,-240.0,,0.0,,0.0,,0.0,"YORKSHIRE, EAST RIDING",,0.0,,0.0,,,0.0,,0.0,-430.0,-1720.0,,0.0,1152.0,0.0,,0.0,,0.0,1.0,-331.0,-993.0,541.9565217391304,12465.0,53.934837,-0.256709,,0.0,,0.0,Nunkeeling Priory,8585.0,Benedictine,,POINT (514546.62833645 450151.197659464),5.0,1.0,1.0,0,0.0,4.0,-48.0,-48.0,,0.0,,0.0,1028.0,1028.0,-3621.0,12206.0,-50.0,-100.0,,0.0,-520.0,-520.0,,0.0,0,0.0,1540.0,0
-1252.0,-1252.0,,0.0,,0.0,,0.0,"YORKSHIRE, WEST RIDING",,0.0,,0.0,,,0.0,,0.0,-224.0,-1120.0,,0.0,1150.0,0.0,,0.0,,0.0,1.0,-24.7,-123.5,627.3333333333334,15056.0,54.01479200000001,-1.220748,,0.0,,0.0,Nunmonkton,17832.5,Benedictine,,POINT (451160.6703301815 457921.2521083938),5.0,1.0,,0,0.0,0.0,-232.0,-232.0,,0.0,,0.0,1104.0,5520.0,-2743.5,20576.0,,0.0,,0.0,-16.0,-16.0,,0.0,0,0.0,1536.0,1
,0.0,,0.0,,0.0,,0.0,LINCOLNSHIRE,,0.0,,0.0,,,0.0,,0.0,,0.0,,0.0,,0.0,,0.0,,0.0,1.0,-28.333333333333332,-85.0,340.0,2720.0,53.433521,-0.217152,,0.0,,0.0,Orford Priory,3357.0,Premonstratensian,,POINT (518541.3078252956 394448.0782600071),4.0,1.0,,0,0.0,3.0,,0.0,,0.0,,0.0,800.0,800.0,-163.0,3520.0,-39.0,-78.0,,0.0,,0.0,,0.0,0,0.0,1539.0,0
,0.0,,0.0,,0.0,,0.0,NORTHUMBERLAND,,0.0,,0.0,1.0,,0.0,,0.0,,0.0,,0.0,1378.0,1.0,,0.0,,0.0,0.0,,0.0,,0.0,54.967407,-1.86875,,0.0,,0.0,Ovingham Priory,2672.0,Augustinian,,POINT (408501.6546347378 563649.6131085868),5.0,1.0,,0,0.0,1.0,,0.0,,0.0,,0.0,,0.0,,,,0.0,,0.0,,0.0,,0.0,0,0.0,1537.0,0
-2080.0,-2080.0,,0.0,,0.0,,0.0,LANCASHIRE,,0.0,,0.0,,,0.0,,0.0,-746.6666666666666,-2240.0,,0.0,1140.0,0.0,,0.0,,0.0,0.0,-82.0,-246.0,7235.0,7235.0,53.7486,-2.7299,,0.0,,0.0,Penwortham Priory,7183.0,Benedictine,,POINT (351963.859931348 428271.0154188015),5.0,,,1,1.0,-1.0,,0.0,,0.0,,0.0,6495.333333333333,19486.0,-20378.0,27562.0,-3953.0,-15812.0,280.0,840.0,,0.0,,0.0,0,0.0,1535.0,0
-3571.0,-3571.0,,0.0,,0.0,,0.0,"YORKSHIRE, WEST RIDING",,0.0,65.0,130.0,,,0.0,,0.0,-424.61538461538464,-5520.0,,0.0,1190.0,0.0,,0.0,,0.0,0.0,-156.92857142857142,-2197.0,1084.8909090909092,59669.0,53.701814,-1.307541,,0.0,600.0,1200.0,Pontefract Priory,80554.0,Benedictine,,POINT (445812.8470862578 423040.5075227575),5.0,1.0,,0,0.0,2.0,,0.0,,0.0,,0.0,3071.9285714285716,43007.0,-32928.0,113482.0,-1182.1176470588234,-20096.0,369.6363636363636,4066.0,-760.0,-760.0,1824.0,3648.0,0,0.0,1538.0,0
-378.0,-756.0,,0.0,,0.0,,0.0,LINCOLNSHIRE,,0.0,,0.0,1.0,,0.0,,0.0,-302.2857142857143,-2116.0,,0.0,,0.0,,0.0,,0.0,0.0,-117.25,-2579.5,1404.7272727272727,77260.0,53.143343,-0.047003,,0.0,1320.0,2640.0,Revesby Abbey,68908.5,Cistercian,,POINT (530725.7886893135 362466.7591385087),4.0,1.0,,0,0.0,2.0,,0.0,,0.0,,0.0,2225.0,8900.0,-14909.5,83818.0,-711.2,-7112.0,,0.0,-555.0,-1110.0,1578.0,1578.0,0,0.0,1538.0,0
,0.0,,0.0,,0.0,,0.0,"YORKSHIRE, WEST RIDING",,0.0,,0.0,,,0.0,,0.0,-1097.142857142857,-7680.0,,0.0,1217.0,0.0,,0.0,,0.0,0.0,,0.0,3573.9285714285716,50035.0,53.978617,-1.404051,,0.0,,0.0,Ribstone Preceptory,49795.0,Augustinian,,POINT (439183.2110775289 453779.8452702524),5.0,1.0,1.0,0,0.0,4.0,,0.0,,0.0,,0.0,3840.0,3840.0,-4080.0,53875.0,-1600.0,-1600.0,,0.0,,0.0,,0.0,0,0.0,1540.0,0
,0.0,,0.0,,0.0,,0.0,"YORKSHIRE, NORTH RIDING",,0.0,,0.0,1.0,,0.0,,0.0,,0.0,,0.0,1131.0,1.0,,0.0,,0.0,0.0,,0.0,,0.0,54.257409,-1.116533,,0.0,,0.0,Rievaulx Abbey,66842.0,Cistercian,,POINT (457652.4513708397 484995.8137536411),5.0,1.0,,0,0.0,2.0,,0.0,,0.0,,0.0,,0.0,,,,0.0,,0.0,,0.0,,0.0,0,0.0,1538.0,0
,0.0,,0.0,,0.0,,0.0,"YORKSHIRE, WEST RIDING",,0.0,25.6,128.0,1.0,,0.0,,0.0,-248.88888888888889,-2240.0,,0.0,1147.0,0.0,,0.0,,0.0,0.0,-200.1578947368421,-3803.0,742.7272727272727,40850.0,53.402539,-1.183534,-30.0,-30.0,434.0,868.0,Roche Abbey,53381.0,Cistercian,,POINT (454380.890322961 389832.231728221),5.0,1.0,,0,0.0,2.0,,0.0,,0.0,,0.0,1128.0,10152.0,-9491.0,62872.0,-2702.0,-5404.0,104.0,104.0,,0.0,,0.0,0,0.0,1538.0,0
,0.0,,0.0,,0.0,,0.0,"YORKSHIRE, NORTH RIDING",,0.0,,0.0,,,0.0,,0.0,,0.0,,0.0,1158.0,1.0,,0.0,,0.0,1.0,,0.0,,0.0,54.353787,-0.887914,,0.0,,0.0,Rosedale Abbey,9029.0,Cistercian,,POINT (472376.6385341232 495929.58951655),5.0,1.0,,0,0.0,0.0,,0.0,,0.0,,0.0,,0.0,,,,0.0,,0.0,,0.0,,0.0,0,0.0,1536.0,1
,0.0,,0.0,,0.0,,0.0,"YORKSHIRE, WEST RIDING",,0.0,,0.0,1.0,,0.0,,0.0,,0.0,,0.0,1148.0,1.0,,0.0,,0.0,0.0,,0.0,,0.0,53.91355,-2.341509,,0.0,,0.0,Sawley Abbey,35326.0,Cistercian,,POINT (377664.9523815583 446430.3991093064),5.0,1.0,,0,0.0,0.0,,0.0,,0.0,,0.0,,0.0,,,,0.0,,0.0,,0.0,,0.0,0,0.0,1536.0,1
-240.0,-240.0,,0.0,,0.0,,0.0,CUMBERLAND,,0.0,,0.0,,,0.0,,0.0,,0.0,,0.0,1195.0,0.0,,0.0,,0.0,1.0,,0.0,395.2,1976.0,54.297187,-3.372929,,0.0,,0.0,Seaton Priory,3024.5,Benedictine,,POINT (310745.2108397402 489932.2900391712),5.0,1.0,,0,0.0,1.0,-51.5,-51.5,,0.0,,0.0,676.0,1352.0,-303.5,3328.0,-12.0,-12.0,,0.0,,0.0,,0.0,0,0.0,1537.0,0
-384.498125,-6151.97,,0.0,-800.0,-800.0,,0.0,"YORKSHIRE, WEST RIDING",,0.0,690.6666666666666,2072.0,,,0.0,,0.0,-441.6666666666667,-10600.0,,0.0,1069.0,0.0,,0.0,2400.0,2400.0,0.0,-69.33333333333333,-416.0,1273.967032967033,115931.0,53.78406,-1.067159,,0.0,2400.0,2400.0,Selby Abbey,176074.0,Benedictine,,POINT (461562.2475539921 432371.9729484436),5.0,1.0,,0,0.0,3.0,,0.0,,0.0,,0.0,1630.7368421052631,61968.0,-21476.0,197550.0,-348.8888888888889,-3140.0,640.0,1920.0,,0.0,,0.0,0,0.0,1539.0,0
,0.0,,0.0,,0.0,,0.0,LINCOLNSHIRE,,0.0,,0.0,,,0.0,,0.0,-252.0,-2520.0,,0.0,,0.0,,0.0,,0.0,0.0,-62.36666666666667,-935.5,805.8688524590164,49158.0,52.878899,-0.358087,,0.0,,0.0,Sempringham Priory,76129.0,Gilbertine,,POINT (510593.327461995 332530.0439431245),4.0,1.0,,0,0.0,2.0,-694.5,-1389.0,,0.0,,0.0,2460.866666666667,36913.0,-10182.0,86311.0,-478.4,-4784.0,,0.0,-110.9,-554.5,,0.0,0,0.0,1538.0,0
-1414.0,-1414.0,,0.0,,0.0,,0.0,WESTMORLAND,,0.0,160.0,160.0,,,0.0,,0.0,-400.0,-1200.0,,0.0,1200.0,0.0,,0.0,,0.0,0.0,-47.666666666666664,-143.0,1103.4722222222222,19862.5,54.530329,-2.699846,,0.0,,0.0,Shap Abbey,37171.5,Premonstratensian,,POINT (354807.6147785321 515230.0626914591),5.0,1.0,,0,0.0,4.0,-38.0,-38.0,,0.0,,0.0,3790.0,15160.0,-2795.0,39966.5,,0.0,,0.0,,0.0,1594.6666666666667,4784.0,0,0.0,1540.0,0
,0.0,,0.0,,0.0,,0.0,LINCOLNSHIRE,,0.0,,0.0,,,0.0,,0.0,-381.3333333333333,-1144.0,,0.0,,0.0,,0.0,,0.0,0.0,-588.0,-4704.0,939.25,33813.0,53.369763,-0.253018,,0.0,,0.0,Sixhills Priory,32409.0,Gilbertine,,POINT (516332.3064630206 387296.8225615134),4.0,1.0,,0,0.0,2.0,-618.0,-618.0,,0.0,,0.0,802.6666666666666,7224.0,-8496.0,40905.0,-406.0,-2030.0,,0.0,,0.0,,0.0,0,0.0,1538.0,0
,0.0,,0.0,,0.0,,0.0,"YORKSHIRE, EAST RIDING",,0.0,,0.0,,,0.0,,0.0,,0.0,,0.0,1122.0,0.0,,0.0,,0.0,0.0,,0.0,1920.0,1920.0,53.981178,-1.281785,,0.0,,0.0,Skewkirk,1920.0,Augustinian,,POINT (447198.9941683404 454139.0475952583),5.0,1.0,1.0,0,0.0,4.0,,0.0,,0.0,,0.0,,0.0,0.0,1920.0,,0.0,,0.0,,0.0,,0.0,0,0.0,1540.0,0
-505.75,-2023.0,,0.0,-900.0,-1800.0,,0.0,LINCOLNSHIRE,,0.0,,0.0,,,0.0,,0.0,-445.52,-11138.0,,0.0,,0.0,,0.0,,0.0,0.0,-54.81818181818182,-1206.0,7477.032608695652,171971.75,52.785806,-0.152889,,0.0,,0.0,Spalding Priory,184187.0,Benedictine,,POINT (524667.2621655074 322511.0366148911),4.0,1.0,,0,0.0,4.0,-432.0,-432.0,,0.0,,0.0,2032.142857142857,28450.0,,,-9600.0,-9600.0,529.3333333333334,4764.0,-48.5,-48.5,,0.0,0,0.0,1540.0,0
,0.0,,0.0,,0.0,,0.0,NORTHUMBERLAND,,0.0,,0.0,,,0.0,,0.0,,0.0,,0.0,1087.0,1.0,,0.0,,0.0,1.0,,0.0,,0.0,54.972445,-1.6161,,0.0,,0.0,"St Bartholomew's Nunnery, Newcastle Upon Tyne",8650.0,Benedictine,,POINT (424673.9128852761 564269.7679386165),5.0,,,1,1.0,4.0,,0.0,,0.0,,0.0,,0.0,,,,0.0,,0.0,,0.0,,0.0,0,0.0,1540.0,0
,0.0,,0.0,,0.0,,0.0,CUMBERLAND,,0.0,,0.0,1.0,,0.0,,0.0,-185.0,-1480.0,,0.0,1120.0,0.0,,0.0,,0.0,0.0,,0.0,444.25,10662.0,54.493949,-3.593528,,0.0,,0.0,St Bees Priory,34514.0,Benedictine,,POINT (296884.4784007689 512125.2006787823),5.0,1.0,1.0,0,0.0,3.0,,0.0,,0.0,,0.0,16860.0,16860.0,-1480.0,35994.0,,0.0,,0.0,,0.0,,0.0,0,0.0,1539.0,0
-260.0,-520.0,,0.0,,0.0,,0.0,LINCOLNSHIRE,,0.0,,0.0,,,0.0,,0.0,-411.42857142857144,-2880.0,,0.0,,0.0,,0.0,,0.0,0.0,-166.80769230769232,-2168.5,334.8723404255319,31478.0,53.214181,-0.547219,,0.0,,0.0,St Catherine's Priory,48540.5,Gilbertine,,POINT (497110.8026969453 369551.3866959929),4.0,,,1,4.0,2.0,-108.57142857142857,-760.0,,0.0,-1120.0,-1120.0,1968.0,19680.0,-20829.5,64575.0,-1436.5714285714287,-10056.0,3200.0,3200.0,-647.0,-1941.0,,0.0,0,0.0,1538.0,0
-296.6666666666667,-890.0,,0.0,,0.0,,0.0,"YORKSHIRE, EAST RIDING",,0.0,,0.0,,,0.0,,0.0,-390.0,-780.0,,0.0,1130.0,0.0,-320.0,-320.0,,0.0,1.0,,0.0,472.94444444444446,8513.0,53.95231,-1.082588,,0.0,330.0,660.0,St Clement's Priory,17638.0,Benedictine,,POINT (460303.8607180662 451077.8607576904),5.0,,,0,0.0,0.0,,0.0,,0.0,,0.0,1166.6666666666667,3500.0,-2351.0,19989.0,-376.0,-1128.0,,0.0,,0.0,280.0,280.0,1,7.0,1536.0,1
,0.0,,0.0,,0.0,,0.0,LINCOLNSHIRE,,0.0,,0.0,1.0,,0.0,,0.0,-153.33333333333334,-920.0,,0.0,1082.0,0.0,,0.0,,0.0,0.0,-215.83333333333334,-1942.5,265.79487179487177,10366.0,52.6541,-0.4656,,0.0,,0.0,"St Leonard's Priory, Stamford",4174.75,Benedictine,,POINT (503891.4082673447 307366.0709964236),4.0,1.0,,0,0.0,2.0,,0.0,,0.0,,0.0,320.0,640.0,-1615.25,5790.0,,0.0,320.0,640.0,,0.0,,0.0,0,0.0,1538.0,0
-252.0,-252.0,,0.0,,0.0,,0.0,"YORKSHIRE, NORTH RIDING",,0.0,,0.0,1.0,,0.0,,0.0,-320.0,-640.0,,0.0,1100.0,0.0,,0.0,,0.0,0.0,,0.0,198.28571428571428,2776.0,54.401826,-1.728652,,0.0,160.0,160.0,"St Martin's Priory, Richmond",10520.0,Benedictine,,POINT (417713.7503614262 500739.3854045983),5.0,1.0,1.0,0,0.0,3.0,,0.0,,0.0,,0.0,50.0,50.0,-964.0,11472.0,-72.0,-72.0,306.5,6130.0,,0.0,,0.0,0,0.0,1539.0,0
,0.0,,0.0,,0.0,,0.0,LINCOLNSHIRE,,0.0,,0.0,1.0,,0.0,,0.0,-280.0,-560.0,,0.0,1161.0,0.0,,0.0,,0.0,0.0,-100.0,-100.0,733.6666666666666,4402.0,53.229954,-0.519876,,0.0,,0.0,St Mary Magdalene's Priory,5595.0,Benedictine,,POINT (498900.3096976861 371343.372462503),4.0,,1.0,1,4.0,3.0,,0.0,,0.0,,0.0,,0.0,-660.0,6255.0,,0.0,192.375,1539.0,,0.0,,0.0,0,0.0,1539.0,0
-6451.625,-51613.0,,0.0,-1842.0,-7368.0,,0.0,"YORKSHIRE, NORTH RIDING",,0.0,138.0,276.0,,,0.0,,0.0,-810.6274509803922,-41342.0,,0.0,1180.0,0.0,,0.0,15509.0,15509.0,0.0,-157.45454545454547,-1732.0,767.0175438596491,131160.0,53.961389000000004,-1.088056,,0.0,365.0,1460.0,"St Mary's Abbey, York",396084.0,Benedictine,,POINT (459932.0582675619 452083.3612521954),5.0,,1.0,0,0.0,3.0,-89.0,-178.0,,0.0,,0.0,2205.075,88203.0,-105811.0,501895.0,-8000.0,-8000.0,893.0,25004.0,,0.0,1600.0,1600.0,1,7.0,1539.0,0
-29.333333333333332,-88.0,,0.0,,0.0,,0.0,LINCOLNSHIRE,,0.0,,0.0,,,0.0,,0.0,-320.0,-640.0,,0.0,,0.0,,0.0,,0.0,1.0,-63.55,-635.5,250.36363636363637,8262.0,52.646248,-0.48220989,,0.0,480.0,480.0,"St Michael's Priory, Stamford",15837.0,Benedictine,,POINT (502786.292982039 306468.93306846),4.0,1.0,,0,0.0,2.0,-153.0,-306.0,,0.0,,0.0,1520.0,1520.0,,,,0.0,760.0,760.0,,0.0,1557.5,6230.0,0,0.0,1538.0,0
,0.0,,0.0,,0.0,,0.0,LINCOLNSHIRE,,0.0,,0.0,,,0.0,,0.0,-432.0,-2160.0,,0.0,,0.0,,0.0,,0.0,1.0,-72.0,-288.0,767.0,14573.0,53.24425699999999,-0.33385117,,0.0,,0.0,Stainfield Priory,23617.0,Benedictine,,POINT (511279.9643520861 373207.3053321274),4.0,1.0,,0,0.0,0.0,-236.0,-236.0,,0.0,,0.0,2480.0,12400.0,-3268.0,26885.0,-280.0,-560.0,,0.0,-12.0,-12.0,,0.0,0,0.0,1536.0,1
,0.0,,0.0,,0.0,,0.0,LINCOLNSHIRE,,0.0,,0.0,,,0.0,,0.0,,0.0,,0.0,,1.0,,0.0,,0.0,1.0,,0.0,,0.0,53.178692,-0.247281,,0.0,,0.0,Stixwould Priory Benedictines,36480.0,Benedictine,,POINT (517234.9030122723 366052.2979642321),4.0,1.0,1.0,0,0.0,1.0,,0.0,,0.0,,0.0,,0.0,,,,0.0,,0.0,,0.0,,0.0,0,0.0,1537.0,0
-377.3333333333333,-1132.0,,0.0,,0.0,,0.0,LINCOLNSHIRE,,0.0,,0.0,,,0.0,,0.0,-323.0769230769231,-4200.0,,0.0,1150.0,0.0,,0.0,,0.0,1.0,-80.0,-80.0,1476.8809523809523,31014.5,53.178692,-0.247281,,0.0,,0.0,Stixwould Priory Cistercians,27422.5,Cistercian,,POINT (517234.9030122723 366052.2979642321),4.0,1.0,1.0,0,0.0,0.0,-184.0,-736.0,,0.0,,0.0,1313.3333333333333,7880.0,-11712.0,39134.5,-664.5714285714286,-4652.0,240.0,240.0,-120.0,-240.0,,0.0,0,0.0,1536.0,1
-1822.0,-1822.0,,0.0,,0.0,,0.0,"YORKSHIRE, EAST RIDING",,0.0,,0.0,,,0.0,,0.0,-400.0,-1600.0,,0.0,1154.0,0.0,,0.0,,0.0,1.0,-132.0,-132.0,713.78125,22841.0,53.806268,-0.27907,,0.0,,0.0,Swine Priory,19725.0,Cistercian,,POINT (513425.6678319816 435812.5443888049),5.0,1.0,,0,0.0,3.0,-222.0,-222.0,,0.0,,0.0,793.3333333333334,9520.0,-12516.0,32241.0,-1386.6666666666667,-4160.0,,0.0,-2133.0,-4266.0,,0.0,0,0.0,1539.0,0
,0.0,,0.0,,0.0,,0.0,LINCOLNSHIRE,,0.0,,0.0,1.0,,0.0,,0.0,-194.28571428571428,-1360.0,,0.0,1148.0,0.0,,0.0,,0.0,0.0,-94.16666666666667,-282.5,1376.44,34411.0,52.947804,-0.141782,,0.0,480.0,480.0,Swineshead Abbey,40263.5,Cistercian,,POINT (524950.5409285917 340548.6283348657),4.0,1.0,1.0,0,0.0,0.0,,0.0,,0.0,,0.0,1832.75,3665.5,1974.5,41038.0,-320.0,-320.0,,0.0,-12.0,-12.0,3632.75,7265.5,0,0.0,1536.0,1
,0.0,,0.0,,0.0,,0.0,"YORKSHIRE, EAST RIDING",,0.0,,0.0,,,0.0,,0.0,-80.0,-160.0,,0.0,1160.0,0.0,,0.0,,0.0,1.0,,0.0,758.5263157894736,14412.0,53.932444,-1.298472,,0.0,,0.0,Syningthwaite Priory,14510.0,Cistercian,,POINT (446158.2725390493 448705.8708481096),5.0,1.0,,0,0.0,-1.0,,0.0,,0.0,,0.0,480.0,480.0,-370.0,14952.0,-105.0,-210.0,,0.0,,0.0,,0.0,0,0.0,1535.0,0
,0.0,,0.0,,0.0,,0.0,LINCOLNSHIRE,,0.0,,0.0,,,0.0,,0.0,,0.0,,0.0,,1.0,,0.0,,0.0,0.0,,0.0,,0.0,53.071064,-0.49615800000000004,,0.0,,0.0,Temple Bruer Preceptory,28428.5,Augustinian,,POINT (500854.3785167803 353701.8024195548),4.0,1.0,,0,0.0,4.0,,0.0,,0.0,,0.0,,0.0,-15811.5,44240.0,,0.0,,0.0,,0.0,,0.0,0,0.0,1540.0,0
,0.0,,0.0,,0.0,,0.0,"YORKSHIRE, EAST RIDING",,0.0,,0.0,,,0.0,,0.0,-213.33333333333334,-640.0,,0.0,1180.0,0.0,,0.0,,0.0,1.0,,0.0,333.29411764705884,5666.0,53.883019999999995,-0.94115,,0.0,,0.0,Thicket Priory,5026.0,Benedictine,,POINT (469700.5077023489 443498.0686942179),5.0,1.0,1.0,0,0.0,3.0,,0.0,,0.0,,0.0,,0.0,-640.0,5666.0,,0.0,,0.0,,0.0,,0.0,0,0.0,1539.0,0
-1080.0,-2160.0,,0.0,,0.0,,0.0,LINCOLNSHIRE,,0.0,,0.0,,,0.0,,0.0,-333.3333333333333,-2000.0,,0.0,,0.0,,0.0,,0.0,0.0,-99.375,-795.0,3295.9166666666665,19775.5,53.600232,-0.542681,,0.0,,0.0,Thornholme Priory,25356.0,Augustinian,,POINT (496537.1150058823 412502.8418316841),4.0,1.0,,0,0.0,0.0,-365.0,-730.0,,0.0,,0.0,1070.0,6420.0,-12078.0,39834.5,-666.4,-3332.0,,0.0,-342.0,-684.0,2270.3333333333335,6811.0,0,0.0,1536.0,1
,0.0,,0.0,,0.0,,0.0,LINCOLNSHIRE,,0.0,720.0,1440.0,,,0.0,,0.0,-278.3333333333333,-6680.0,,0.0,1139.0,0.0,,0.0,,0.0,0.0,-513.7368421052631,-9761.0,3167.8352272727275,139384.75,53.655125,-0.309758,,0.0,,0.0,Thornton Abbey,142774.5,Augustinian,,POINT (511804.7970507502 418950.0326921588),4.0,1.0,1.0,0,0.0,3.0,-435.0,-870.0,,0.0,,0.0,3008.0,33088.0,-32632.0,175406.75,-1286.0,-15432.0,414.0,414.0,-2409.0,-2409.0,,0.0,0,0.0,1539.0,0
,0.0,,0.0,,0.0,,0.0,LINCOLNSHIRE,,0.0,,0.0,,,0.0,,0.0,,0.0,,0.0,,0.0,,0.0,,0.0,0.0,-45.333333333333336,-136.0,1268.0,2536.0,53.300891,-0.744771,,0.0,,0.0,Torksey Priory,3136.0,Augustinian,,POINT (483750.0741881971 378947.6493980366),4.0,1.0,,0,0.0,0.0,-376.0,-376.0,,0.0,,0.0,3616.0,3616.0,,,-716.0,-2864.0,,0.0,,0.0,,0.0,0,0.0,1536.0,1
,0.0,,0.0,,0.0,,0.0,LINCOLNSHIRE,,0.0,,0.0,,,0.0,,0.0,-160.0,-640.0,,0.0,,0.0,,0.0,,0.0,0.0,-124.85714285714286,-874.0,960.2666666666667,14404.0,53.199,-0.288,,0.0,,0.0,Tupholme Abbey,24178.0,Premonstratensian,,POINT (514459.7775088371 368245.4233500782),4.0,1.0,,0,0.0,0.0,-360.0,-360.0,,0.0,,0.0,,0.0,-4414.0,28592.0,-1200.0,-2400.0,,0.0,-40.0,-40.0,2026.857142857143,14188.0,0,0.0,1536.0,1
,0.0,,0.0,,0.0,,0.0,NORTHUMBERLAND,,0.0,,0.0,1.0,,0.0,,0.0,,0.0,,0.0,1083.0,1.0,,0.0,,0.0,0.0,,0.0,,0.0,55.017788,-1.418019,,0.0,,0.0,Tynemouth Priory,95405.5,Benedictine,,POINT (437311.8402860562 569402.9264493017),5.0,,,1,3.0,2.0,,0.0,,0.0,,0.0,,0.0,,,,0.0,,0.0,,0.0,,0.0,0,0.0,1538.0,0
,0.0,,0.0,,0.0,,0.0,LANCASHIRE,,0.0,,0.0,,,0.0,,0.0,-320.0,-640.0,,0.0,1319.0,0.0,,0.0,,0.0,0.0,,0.0,1500.0,3000.0,53.5401,-2.7213,,0.0,,0.0,Upholland Priory,12760.0,Benedictine,,POINT (352295.9238006274 405068.6580227378),5.0,1.0,,0,0.0,0.0,,0.0,,0.0,,0.0,5840.0,11680.0,-1920.0,14680.0,-320.0,-1280.0,,0.0,,0.0,,0.0,0,0.0,1536.0,1
-160.0,-160.0,,0.0,,0.0,,0.0,LINCOLNSHIRE,,0.0,,0.0,1.0,,0.0,,0.0,-265.2631578947368,-5040.0,,0.0,,0.0,,0.0,,0.0,0.0,-130.22,-3255.5,1068.530487804878,43809.75,52.782222,-0.464444,,0.0,,0.0,Vaudey Abbey,29831.25,Cistercian,,POINT (503665.8005662989 321618.4636887095),4.0,1.0,,0,0.0,0.0,,0.0,,0.0,,0.0,,0.0,-12960.0,42667.75,-480.0,-2400.0,,0.0,-495.0,-1980.0,,0.0,0,0.0,1536.0,1
,0.0,,0.0,,0.0,,0.0,"YORKSHIRE, EAST RIDING",,0.0,,0.0,,,0.0,,0.0,,0.0,,0.0,1133.0,1.0,,0.0,,0.0,0.0,,0.0,,0.0,53.942856,-0.67619,,0.0,,0.0,Warter Abbey,34412.0,Augustinian,,POINT (486992.3702518808 450447.7036216878),5.0,1.0,1.0,0,0.0,0.0,,0.0,,0.0,,0.0,,0.0,,,,0.0,,0.0,,0.0,,0.0,0,0.0,1536.0,1
,0.0,,0.0,,0.0,,0.0,"YORKSHIRE, EAST RIDING",,0.0,,0.0,,,0.0,,0.0,,0.0,,0.0,1150.0,1.0,,0.0,,0.0,0.0,,0.0,,0.0,53.934821,-0.442768,,0.0,,0.0,Watton Priory,86626.0,Gilbertine,,POINT (502332.689859294 449865.0102756603),5.0,1.0,,0,0.0,3.0,,0.0,,0.0,,0.0,,0.0,,,,0.0,,0.0,,0.0,,0.0,0,0.0,1539.0,0
,0.0,,0.0,,0.0,,0.0,LINCOLNSHIRE,,0.0,,0.0,,,0.0,,0.0,-320.0,-1600.0,,0.0,1118.0,0.0,,0.0,,0.0,0.0,-913.6666666666666,-5482.0,767.2,19180.0,53.559843,-0.085385,,0.0,,0.0,Wellow Abbey,22873.0,Augustinian,,POINT (526916.9740865253 408726.4811271032),4.0,,1.0,1,1.0,0.0,-380.0,-380.0,,0.0,,0.0,3360.0,16800.0,-13695.0,36568.0,-816.5714285714286,-5716.0,300.0,600.0,-480.0,-480.0,,0.0,0,0.0,1536.0,1
-640.0,-640.0,,0.0,,0.0,,0.0,CUMBERLAND,,0.0,240.0,240.0,1.0,,0.0,,0.0,-440.0,-1760.0,,0.0,1106.0,0.0,,0.0,,0.0,0.0,-80.0,-160.0,424.1,8482.0,54.879306,-2.829993,,0.0,,0.0,Wetheral,28222.0,Benedictine,,POINT (346844.6500220284 554153.5345507971),5.0,1.0,1.0,0,0.0,2.0,,0.0,,0.0,,0.0,3945.0,15780.0,-2560.0,30782.0,,0.0,570.0,1140.0,,0.0,,0.0,0,0.0,1538.0,0
-28066.0,-28066.0,,0.0,,0.0,,0.0,LANCASHIRE,,0.0,,0.0,1.0,,0.0,,0.0,-642.2222222222222,-11560.0,,0.0,1296.0,0.0,,0.0,,0.0,0.0,-173.8421052631579,-3303.0,1263.2222222222222,45476.0,53.820441,-2.410518,-320.0,-320.0,,0.0,Whalley Abbey,77149.5,Cistercian,,POINT (373071.9032939133 436095.0757779444),5.0,1.0,1.0,0,0.0,1.0,,0.0,,0.0,,0.0,8293.0,66344.0,-55144.5,132294.0,-2088.0,-10440.0,,0.0,,0.0,,0.0,0,0.0,1537.0,0
-1516.0,-6064.0,,0.0,,0.0,,0.0,"YORKSHIRE, NORTH RIDING",,0.0,,0.0,,,0.0,,0.0,-617.1428571428571,-4320.0,,0.0,1078.0,0.0,,0.0,,0.0,0.0,-160.0,-160.0,1244.1333333333334,74648.0,54.488295,-0.607538,,0.0,,0.0,Whitby Abbey,104913.0,Benedictine,657.0,POINT (490302.5132476176 511218.6435916435),5.0,,1.0,0,0.0,4.0,,0.0,,0.0,,0.0,2142.4444444444443,38564.0,-16228.0,121261.0,-627.3333333333334,-3764.0,381.25,3050.0,,0.0,695.6,3478.0,1,1.0,1540.0,0
,0.0,,0.0,,0.0,,0.0,"YORKSHIRE, EAST RIDING",,0.0,,0.0,,,0.0,,0.0,,0.0,,0.0,1153.0,1.0,,0.0,,0.0,1.0,,0.0,,0.0,53.940974,-0.88941,,0.0,,0.0,Wilberfoss Priory,5242.0,Benedictine,,POINT (473000.5401683477 449997.8813840864),5.0,1.0,1.0,0,0.0,3.0,,0.0,,0.0,,0.0,,0.0,,,,0.0,,0.0,,0.0,,0.0,0,0.0,1539.0,0
,0.0,,0.0,,0.0,,0.0,LINCOLNSHIRE,,0.0,,0.0,,,0.0,,0.0,-530.0,-4240.0,,0.0,,0.0,,0.0,,0.0,0.0,-214.33333333333334,-643.0,2344.264705882353,39852.5,53.4269,-0.6053,,0.0,160.0,160.0,Willoughton Preceptory,41893.5,Augustinian,,POINT (492770.7427973711 393137.3754102993),4.0,1.0,,0,0.0,4.0,,0.0,,0.0,,0.0,2026.6666666666667,6080.0,-4943.0,46836.5,,0.0,248.0,744.0,-60.0,-60.0,,0.0,0,0.0,1540.0,0
,0.0,,0.0,,0.0,,0.0,"YORKSHIRE, WEST RIDING",,0.0,38.0,38.0,1.0,,0.0,,0.0,-200.0,-400.0,,0.0,1135.0,0.0,,0.0,,0.0,0.0,-66.0,-66.0,2522.0,5044.0,53.72133,-1.589574,,0.0,,0.0,Woodkirk Priory,11284.0,Augustinian,,POINT (427181.0956536565 425067.7335904273),5.0,1.0,,0,0.0,4.0,-96.0,-96.0,,0.0,,0.0,2340.0,2340.0,-562.0,11846.0,,0.0,,0.0,,0.0,2212.0,4424.0,0,0.0,1540.0,0
,0.0,,0.0,,0.0,,0.0,"YORKSHIRE, NORTH RIDING",,0.0,,0.0,,,0.0,,0.0,,0.0,,0.0,1153.0,1.0,,0.0,,0.0,1.0,,0.0,,0.0,54.223885,-0.525026,,0.0,,0.0,Wykeham Priory,6210.0,Cistercian,,POINT (496262.57744963 481909.2537746927),5.0,1.0,1.0,0,0.0,3.0,,0.0,,0.0,,0.0,,0.0,,,,0.0,,0.0,,0.0,,0.0,0,0.0,1539.0,0
,0.0,,0.0,,0.0,,0.0,"YORKSHIRE, NORTH RIDING",,0.0,,0.0,,,0.0,,0.0,,0.0,,0.0,1163.0,1.0,,0.0,,0.0,1.0,,0.0,,0.0,54.206767,-0.628267,,0.0,,0.0,Yedingham Priory,5238.0,Benedictine,,POINT (489568.9514144587 479869.119335735),5.0,1.0,,0,0.0,3.0,,0.0,,0.0,,0.0,,0.0,,,,0.0,,0.0,,0.0,,0.0,0,0.0,1539.0,0
